{"countries":[{"lat":50.7252,"lng":7.13768,"zoom":11,"name":"Bonn nextbike","hotline":"00493069205046","domain":"bf","language":"de","email":"kundenservice@nextbike.de","timezone":"Europe/Berlin","currency":"EUR","country_calling_code":"+49","system_operator_address":"nextbike GmbH, Erich-Zeigner Allee 69-73, 04229 Leipzig","country":"DE","country_name":"Germany","terms":"https://www.nextbike.de/de/agb/#202006","policy":"https://www.nextbike.de/datenschutz/","website":"https://www.nextbike.de/de/bonn/","show_bike_types":false,"show_bike_type_groups":false,"show_free_racks":false,"booked_bikes":0,"set_point_bikes":1042,"available_bikes":249,"capped_available_bikes":false,"no_registration":false,"pricing":"https://www.nextbike.de/de/bonn/preise/","cities":[{"uid":547,"lat":50.7367,"lng":7.09541,"zoom":12,"maps_icon":"","alias":"bonn","break":false,"name":"Bonn","num_places":341,"refresh_rate":"10120","bounds":{"south_west":{"lat":50.6249,"lng":6.2763},"north_east":{"lat":50.8907,"lng":7.2017}},"booked_bikes":0,"set_point_bikes":1042,"available_bikes":249,"return_to_official_only":true,"bike_types":{"14":1,"71":338,"143":5,"150":5,"undefined":3},"website":"https://www.nextbike.de/de/bonn/","places":[{"uid":10044279,"lat":50.739211,"lng":7.126598,"bike":false,"name":"Bahnhof Beuel","address":null,"spot":true,"number":4741,"booked_bikes":0,"bikes":0,"bikes_available_to_rent":0,"bike_racks":0,"free_racks":0,"special_racks":0,"free_special_racks":0,"maintenance":false,"terminal_type":"free","bike_list":[],"bike_numbers":[],"bike_types":{},"place_type":"0","rack_locks":false},{"uid":10044287,"lat":50.736768,"lng":7.080957,"bike":false,"name":"Haltepunkt Bonn-West","address":null,"spot":true,"number":4742,"booked_bikes":0,"bikes":0,"bikes_available_to_rent":0,"bike_racks":0,"free_racks":0,"special_racks":0,"free_special_racks":0,"maintenance":false,"terminal_type":"free","bike_list":[],"bike_numbers":[],"bike_types":{},"place_type":"0","rack_locks":false},{"uid":10044296,"lat":50.71461,"lng":7.160082,"bike":false,"name":"Bahnhof Oberkassel","address":null,"spot":true,"number":4743,"booked_bikes":0,"bikes":0,"bikes_available_to_rent":0,"bike_racks":0,"free_racks":0,"special_racks":0,"free_special_racks":0,"maintenance":false,"terminal_type":"free","bike_list":[],"bike_numbers":[],"bike_types":{},"place_type":"0","rack_locks":false},{"uid":10044315,"lat":50.71788,"lng":7.12546,"bike":false,"name":"Bundeshaus","address":null,"spot":true,"number":4744,"booked_bikes":0,"bikes":0,"bikes_available_to_rent":0,"bike_racks":0,"free_racks":0,"special_racks":0,"free_special_racks":0,"maintenance":false,"terminal_type":"free","bike_list":[],"bike_numbers":[],"bike_types":{},"place_type":"0","rack_locks":false},{"uid":10044322,"lat":50.71757,"lng":7.090974,"bike":false,"name":"St. Marien Hospital","address":null,"spot":true,"number":4745,"booked_bikes":0,"bikes":0,"bikes_available_to_rent":0,"bike_racks":0,"free_racks":0,"special_racks":0,"free_special_racks":0,"maintenance":false,"terminal_type":"free","bike_list":[],"bike_numbers":[],"bike_types":{},"place_type":"0","rack_locks":false},{"uid":10044348,"lat":50.702784,"lng":7.10029,"bike":false,"name":"UKBonn","address":null,"spot":true,"number":4748,"booked_bikes":0,"bikes":0,"bikes_available_to_rent":0,"bike_racks":0,"free_racks":0,"special_racks":0,"free_special_racks":0,"maintenance":true,"terminal_type":"free","bike_list":[],"bike_numbers":[],"bike_types":{},"place_type":"0","rack_locks":false},{"uid":10044359,"lat":50.734919,"lng":7.102499,"bike":false,"name":"Altes Rathaus","address":null,"spot":true,"number":4749,"booked_bikes":0,"bikes":0,"bikes_available_to_rent":0,"bike_racks":0,"free_racks":0,"special_racks":0,"free_special_racks":0,"maintenance":false,"terminal_type":"free","bike_list":[],"bike_numbers":[],"bike_types":{},"place_type":"0","rack_locks":false},{"uid":10044374,"lat":50.725962,"lng":7.094151,"bike":false,"name":"Poppelsdorfer Schloss","address":null,"spot":true,"number":4750,"booked_bikes":0,"bikes":0,"bikes_available_to_rent":0,"bike_racks":0,"free_racks":0,"special_racks":0,"free_special_racks":0,"maintenance":false,"terminal_type":"free","bike_list":[],"bike_numbers":[],"bike_types":{},"place_type":"0","rack_locks":false},{"uid":10044445,"lat":50.736217,"lng":7.094604,"bike":false,"name":"Alter Friedhof","address":null,"spot":true,"number":4752,"booked_bikes":0,"bikes":0,"bikes_available_to_rent":0,"bike_racks":0,"free_racks":0,"special_racks":0,"free_special_racks":0,"maintenance":false,"terminal_type":"free","bike_list":[],"bike_numbers":[],"bike_types":{},"place_type":"0","rack_locks":false},{"uid":10044458,"lat":50.73433,"lng":7.097629,"bike":false,"name":"Bonn Information","address":null,"spot":true,"number":4753,"booked_bikes":0,"bikes":0,"bikes_available_to_rent":0,"bike_racks":0,"free_racks":0,"special_racks":0,"free_special_racks":0,"maintenance":false,"terminal_type":"free","bike_list":[],"bike_numbers":[],"bike_types":{},"place_type":"0","rack_locks":false},{"uid":10044463,"lat":50.717595,"lng":7.119956,"bike":false,"name":"Haus der Geschichte","address":null,"spot":true,"number":4754,"booked_bikes":0,"bikes":0,"bikes_available_to_rent":0,"bike_racks":0,"free_racks":0,"special_racks":0,"free_special_racks":0,"maintenance":false,"terminal_type":"free","bike_list":[],"bike_numbers":[],"bike_types":{},"place_type":"0","rack_locks":false},{"uid":10044492,"lat":50.740346,"lng":7.091728,"bike":false,"name":"Frauen Museum","address":null,"spot":true,"number":4757,"booked_bikes":0,"bikes":0,"bikes_available_to_rent":0,"bike_racks":0,"free_racks":0,"special_racks":0,"free_special_racks":0,"maintenance":false,"terminal_type":"free","bike_list":[],"bike_numbers":[],"bike_types":{},"place_type":"0","rack_locks":false},{"uid":10044499,"lat":50.736858,"lng":7.105968,"bike":false,"name":"Theater Bonn","address":null,"spot":true,"number":4759,"booked_bikes":0,"bikes":0,"bikes_available_to_rent":0,"bike_racks":0,"free_racks":0,"special_racks":0,"free_special_racks":0,"maintenance":true,"terminal_type":"free","bike_list":[],"bike_numbers":[],"bike_types":{},"place_type":"0","rack_locks":false},{"uid":10044510,"lat":50.735092,"lng":7.108273,"bike":false,"name":"Schiffsanlegestelle „Alter Zoll“","address":null,"spot":true,"number":4760,"booked_bikes":0,"bikes":0,"bikes_available_to_rent":0,"bike_racks":0,"free_racks":0,"special_racks":0,"free_special_racks":0,"maintenance":false,"terminal_type":"free","bike_list":[],"bike_numbers":[],"bike_types":{},"place_type":"0","rack_locks":false},{"uid":10044525,"lat":50.717948,"lng":7.154122,"bike":false,"name":"Bonner Bogen","address":null,"spot":true,"number":4761,"booked_bikes":0,"bikes":0,"bikes_available_to_rent":0,"bike_racks":0,"free_racks":0,"special_racks":0,"free_special_racks":0,"maintenance":false,"terminal_type":"free","bike_list":[],"bike_numbers":[],"bike_types":{},"place_type":"0","rack_locks":false},{"uid":10044530,"lat":50.718658,"lng":7.129261,"bike":false,"name":"Schiffsanlegestelle Bundeshaus","address":null,"spot":true,"number":4762,"booked_bikes":0,"bikes":0,"bikes_available_to_rent":0,"bike_racks":0,"free_racks":0,"special_racks":0,"free_special_racks":0,"maintenance":false,"terminal_type":"free","bike_list":[],"bike_numbers":[],"bike_types":{},"place_type":"0","rack_locks":false},{"uid":10044540,"lat":50.730092,"lng":7.108278,"bike":false,"name":"Juridicum","address":null,"spot":true,"number":4764,"booked_bikes":0,"bikes":0,"bikes_available_to_rent":0,"bike_racks":0,"free_racks":0,"special_racks":0,"free_special_racks":0,"maintenance":false,"terminal_type":"free","bike_list":[],"bike_numbers":[],"bike_types":{},"place_type":"0","rack_locks":false},{"uid":10044582,"lat":50.728481,"lng":7.08527,"bike":false,"name":"Campus Poppelsdorf I","address":null,"spot":true,"number":4765,"booked_bikes":0,"bikes":0,"bikes_available_to_rent":0,"bike_racks":0,"free_racks":0,"special_racks":0,"free_special_racks":0,"maintenance":false,"terminal_type":"free","bike_list":[],"bike_numbers":[],"bike_types":{},"place_type":"0","rack_locks":false},{"uid":10044627,"lat":50.710586,"lng":7.126873,"bike":false,"name":"Ollenhauerstraße","address":null,"spot":true,"number":4769,"booked_bikes":0,"bikes":0,"bikes_available_to_rent":0,"bike_racks":0,"free_racks":0,"special_racks":0,"free_special_racks":0,"maintenance":false,"terminal_type":"free","bike_list":[],"bike_numbers":[],"bike_types":{},"place_type":"0","rack_locks":false},{"uid":10044650,"lat":50.721643,"lng":7.143157,"bike":false,"name":"T-Mobile, Landgrabenweg","address":null,"spot":true,"number":4772,"booked_bikes":0,"bikes":0,"bikes_available_to_rent":0,"bike_racks":0,"free_racks":0,"special_racks":0,"free_special_racks":0,"maintenance":false,"terminal_type":"free","bike_list":[],"bike_numbers":[],"bike_types":{},"place_type":"0","rack_locks":false},{"uid":10044658,"lat":50.749956,"lng":7.175042,"bike":false,"name":"Kohlkauer Platz","address":null,"spot":true,"number":4773,"booked_bikes":0,"bikes":0,"bikes_available_to_rent":0,"bike_racks":0,"free_racks":0,"special_racks":0,"free_special_racks":0,"maintenance":false,"terminal_type":"free","bike_list":[],"bike_numbers":[],"bike_types":{},"place_type":"0","rack_locks":false},{"uid":10044664,"lat":50.73656,"lng":7.117344,"bike":false,"name":"Beuel Krankenhaus","address":null,"spot":true,"number":4774,"booked_bikes":0,"bikes":0,"bikes_available_to_rent":0,"bike_racks":0,"free_racks":0,"special_racks":0,"free_special_racks":0,"maintenance":false,"terminal_type":"free","bike_list":[],"bike_numbers":[],"bike_types":{},"place_type":"0","rack_locks":false},{"uid":10044675,"lat":50.697096,"lng":7.141677,"bike":false,"name":"Hochkreuz","address":null,"spot":true,"number":4775,"booked_bikes":0,"bikes":0,"bikes_available_to_rent":0,"bike_racks":0,"free_racks":0,"special_racks":0,"free_special_racks":0,"maintenance":false,"terminal_type":"free","bike_list":[],"bike_numbers":[],"bike_types":{},"place_type":"0","rack_locks":false},{"uid":10044687,"lat":50.725994,"lng":7.111225,"bike":false,"name":"Bundesrechnungshof","address":null,"spot":true,"number":4776,"booked_bikes":0,"bikes":0,"bikes_available_to_rent":0,"bike_racks":0,"free_racks":0,"special_racks":0,"free_special_racks":0,"maintenance":false,"terminal_type":"free","bike_list":[],"bike_numbers":[],"bike_types":{},"place_type":"0","rack_locks":false},{"uid":10044713,"lat":50.721355,"lng":7.087861,"bike":false,"name":"Poppelsdorfer Platz","address":null,"spot":true,"number":4777,"booked_bikes":0,"bikes":0,"bikes_available_to_rent":0,"bike_racks":0,"free_racks":0,"special_racks":0,"free_special_racks":0,"maintenance":false,"terminal_type":"free","bike_list":[],"bike_numbers":[],"bike_types":{},"place_type":"0","rack_locks":false},{"uid":10044733,"lat":50.727019,"lng":7.081236,"bike":false,"name":"Wiesenweg","address":null,"spot":true,"number":4781,"booked_bikes":0,"bikes":0,"bikes_available_to_rent":0,"bike_racks":0,"free_racks":0,"special_racks":0,"free_special_racks":0,"maintenance":false,"terminal_type":"free","bike_list":[],"bike_numbers":[],"bike_types":{},"place_type":"0","rack_locks":false},{"uid":10044742,"lat":50.722049,"lng":7.155165,"bike":false,"name":"Ramersdorf","address":null,"spot":true,"number":4782,"booked_bikes":0,"bikes":0,"bikes_available_to_rent":0,"bike_racks":0,"free_racks":0,"special_racks":0,"free_special_racks":0,"maintenance":false,"terminal_type":"free","bike_list":[],"bike_numbers":[],"bike_types":{},"place_type":"0","rack_locks":false},{"uid":10044761,"lat":50.735673,"lng":7.096814,"bike":false,"name":"Friedensplatz/Budapester Straße","address":null,"spot":true,"number":4785,"booked_bikes":0,"bikes":0,"bikes_available_to_rent":0,"bike_racks":0,"free_racks":0,"special_racks":0,"free_special_racks":0,"maintenance":false,"terminal_type":"free","bike_list":[],"bike_numbers":[],"bike_types":{},"place_type":"0","rack_locks":false},{"uid":10044769,"lat":50.71464,"lng":7.118325,"bike":false,"name":"UN-Campus","address":null,"spot":true,"number":4786,"booked_bikes":0,"bikes":0,"bikes_available_to_rent":0,"bike_racks":0,"free_racks":0,"special_racks":0,"free_special_racks":0,"maintenance":false,"terminal_type":"free","bike_list":[],"bike_numbers":[],"bike_types":{},"place_type":"0","rack_locks":false},{"uid":10044780,"lat":50.706681,"lng":7.137606,"bike":false,"name":"Robert Schumann Platz","address":null,"spot":true,"number":4787,"booked_bikes":0,"bikes":0,"bikes_available_to_rent":0,"bike_racks":0,"free_racks":0,"special_racks":0,"free_special_racks":0,"maintenance":false,"terminal_type":"free","bike_list":[],"bike_numbers":[],"bike_types":{},"place_type":"0","rack_locks":false},{"uid":10058424,"lat":50.72143,"lng":7.114651,"bike":false,"name":"Museum König","address":null,"spot":true,"number":4874,"booked_bikes":0,"bikes":0,"bikes_available_to_rent":0,"bike_racks":0,"free_racks":0,"special_racks":0,"free_special_racks":0,"maintenance":false,"terminal_type":"free","bike_list":[],"bike_numbers":[],"bike_types":{},"place_type":"0","rack_locks":false},{"uid":10058463,"lat":50.742695,"lng":7.117317,"bike":false,"name":"Rheindorfer Straße","address":null,"spot":true,"number":4877,"booked_bikes":0,"bikes":0,"bikes_available_to_rent":0,"bike_racks":0,"free_racks":0,"special_racks":0,"free_special_racks":0,"maintenance":false,"terminal_type":"free","bike_list":[],"bike_numbers":[],"bike_types":{},"place_type":"0","rack_locks":false},{"uid":10058482,"lat":50.740943,"lng":7.131441,"bike":false,"name":"Schauspielhalle","address":null,"spot":true,"number":4878,"booked_bikes":0,"bikes":0,"bikes_available_to_rent":0,"bike_racks":0,"free_racks":0,"special_racks":0,"free_special_racks":0,"maintenance":false,"terminal_type":"free","bike_list":[],"bike_numbers":[],"bike_types":{},"place_type":"0","rack_locks":false},{"uid":10058493,"lat":50.732863,"lng":7.083832,"bike":false,"name":"Karlstraße","address":null,"spot":true,"number":4879,"booked_bikes":0,"bikes":0,"bikes_available_to_rent":0,"bike_racks":0,"free_racks":0,"special_racks":0,"free_special_racks":0,"maintenance":false,"terminal_type":"free","bike_list":[],"bike_numbers":[],"bike_types":{},"place_type":"0","rack_locks":false},{"uid":10058501,"lat":50.743445,"lng":7.090307,"bike":false,"name":"Chlodwigplatz","address":null,"spot":true,"number":4880,"booked_bikes":0,"bikes":0,"bikes_available_to_rent":0,"bike_racks":0,"free_racks":0,"special_racks":0,"free_special_racks":0,"maintenance":false,"terminal_type":"free","bike_list":[],"bike_numbers":[],"bike_types":{},"place_type":"0","rack_locks":false},{"uid":10058514,"lat":50.741469,"lng":7.097817,"bike":false,"name":"Rosental/Am Johanneskreuz","address":null,"spot":true,"number":4882,"booked_bikes":0,"bikes":0,"bikes_available_to_rent":0,"bike_racks":0,"free_racks":0,"special_racks":0,"free_special_racks":0,"maintenance":false,"terminal_type":"free","bike_list":[],"bike_numbers":[],"bike_types":{},"place_type":"0","rack_locks":false},{"uid":10058527,"lat":50.75523,"lng":7.076526,"bike":false,"name":"Pariser Straße","address":null,"spot":true,"number":4883,"booked_bikes":0,"bikes":0,"bikes_available_to_rent":0,"bike_racks":0,"free_racks":0,"special_racks":0,"free_special_racks":0,"maintenance":true,"terminal_type":"free","bike_list":[],"bike_numbers":[],"bike_types":{},"place_type":"0","rack_locks":false},{"uid":10058536,"lat":50.749755,"lng":7.046147,"bike":false,"name":"Tannenbusch Mitte","address":null,"spot":true,"number":4884,"booked_bikes":0,"bikes":0,"bikes_available_to_rent":0,"bike_racks":0,"free_racks":0,"special_racks":0,"free_special_racks":0,"maintenance":false,"terminal_type":"free","bike_list":[],"bike_numbers":[],"bike_types":{},"place_type":"0","rack_locks":false},{"uid":10058548,"lat":50.726092,"lng":7.073978,"bike":false,"name":"Magdalenenplatz","address":null,"spot":true,"number":4886,"booked_bikes":0,"bikes":0,"bikes_available_to_rent":0,"bike_racks":0,"free_racks":0,"special_racks":0,"free_special_racks":0,"maintenance":false,"terminal_type":"free","bike_list":[],"bike_numbers":[],"bike_types":{},"place_type":"0","rack_locks":false},{"uid":10058564,"lat":50.739524,"lng":7.087335,"bike":false,"name":"Frankenbad/Vorgebirgsstraße","address":null,"spot":true,"number":4888,"booked_bikes":0,"bikes":0,"bikes_available_to_rent":0,"bike_racks":0,"free_racks":0,"special_racks":0,"free_special_racks":0,"maintenance":false,"terminal_type":"free","bike_list":[],"bike_numbers":[],"bike_types":{},"place_type":"0","rack_locks":false},{"uid":10058571,"lat":50.697504,"lng":7.08042,"bike":false,"name":"Ippendorf","address":null,"spot":true,"number":4889,"booked_bikes":0,"bikes":0,"bikes_available_to_rent":0,"bike_racks":0,"free_racks":0,"special_racks":0,"free_special_racks":0,"maintenance":false,"terminal_type":"free","bike_list":[],"bike_numbers":[],"bike_types":{},"place_type":"0","rack_locks":false},{"uid":10059156,"lat":50.737971,"lng":7.113851,"bike":false,"name":"Hans-Steger-Ufer","address":null,"spot":true,"number":4890,"booked_bikes":0,"bikes":0,"bikes_available_to_rent":0,"bike_racks":0,"free_racks":0,"special_racks":0,"free_special_racks":0,"maintenance":false,"terminal_type":"free","bike_list":[],"bike_numbers":[],"bike_types":{},"place_type":"0","rack_locks":false},{"uid":10059187,"lat":50.754283,"lng":7.146741,"bike":false,"name":"Vilich Müldorf","address":null,"spot":true,"number":4894,"booked_bikes":0,"bikes":0,"bikes_available_to_rent":0,"bike_racks":0,"free_racks":0,"special_racks":0,"free_special_racks":0,"maintenance":false,"terminal_type":"free","bike_list":[],"bike_numbers":[],"bike_types":{},"place_type":"0","rack_locks":false},{"uid":10059220,"lat":50.71626,"lng":7.041636,"bike":false,"name":"Bahnhof Duisdorf","address":null,"spot":true,"number":4896,"booked_bikes":0,"bikes":0,"bikes_available_to_rent":0,"bike_racks":0,"free_racks":0,"special_racks":0,"free_special_racks":0,"maintenance":false,"terminal_type":"free","bike_list":[],"bike_numbers":[],"bike_types":{},"place_type":"0","rack_locks":false},{"uid":10059244,"lat":50.699567,"lng":7.057251,"bike":false,"name":"Celsiusstraße","address":null,"spot":true,"number":4899,"booked_bikes":0,"bikes":0,"bikes_available_to_rent":0,"bike_racks":0,"free_racks":0,"special_racks":0,"free_special_racks":0,"maintenance":false,"terminal_type":"free","bike_list":[],"bike_numbers":[],"bike_types":{},"place_type":"0","rack_locks":false},{"uid":10059319,"lat":50.691768,"lng":7.148076,"bike":false,"name":"Wurzer Straße","address":null,"spot":true,"number":4970,"booked_bikes":0,"bikes":0,"bikes_available_to_rent":0,"bike_racks":0,"free_racks":0,"special_racks":0,"free_special_racks":0,"maintenance":false,"terminal_type":"free","bike_list":[],"bike_numbers":[],"bike_types":{},"place_type":"0","rack_locks":false},{"uid":10059334,"lat":50.687547,"lng":7.154074,"bike":false,"name":"Haltepunkt Plittersdorfer Straße","address":null,"spot":true,"number":4971,"booked_bikes":0,"bikes":0,"bikes_available_to_rent":0,"bike_racks":0,"free_racks":0,"special_racks":0,"free_special_racks":0,"maintenance":false,"terminal_type":"free","bike_list":[],"bike_numbers":[],"bike_types":{},"place_type":"0","rack_locks":false},{"uid":10059347,"lat":50.683143,"lng":7.159175,"bike":false,"name":"Bahnhof Godesberg","address":null,"spot":true,"number":4973,"booked_bikes":0,"bikes":0,"bikes_available_to_rent":0,"bike_racks":0,"free_racks":0,"special_racks":0,"free_special_racks":0,"maintenance":false,"terminal_type":"free","bike_list":[],"bike_numbers":[],"bike_types":{},"place_type":"0","rack_locks":false},{"uid":10059413,"lat":50.668494,"lng":7.181722,"bike":false,"name":"Bahnhof Mehlem","address":null,"spot":true,"number":4974,"booked_bikes":0,"bikes":0,"bikes_available_to_rent":0,"bike_racks":0,"free_racks":0,"special_racks":0,"free_special_racks":0,"maintenance":false,"terminal_type":"free","bike_list":[],"bike_numbers":[],"bike_types":{},"place_type":"0","rack_locks":false},{"uid":10059425,"lat":50.683765,"lng":7.155844,"bike":false,"name":"Koblenzer Straße","address":null,"spot":true,"number":4975,"booked_bikes":0,"bikes":0,"bikes_available_to_rent":0,"bike_racks":0,"free_racks":0,"special_racks":0,"free_special_racks":0,"maintenance":false,"terminal_type":"free","bike_list":[],"bike_numbers":[],"bike_types":{},"place_type":"0","rack_locks":false},{"uid":10059495,"lat":50.758852,"lng":7.047053,"bike":false,"name":"Buschdorf","address":null,"spot":true,"number":4982,"booked_bikes":0,"bikes":0,"bikes_available_to_rent":0,"bike_racks":0,"free_racks":0,"special_racks":0,"free_special_racks":0,"maintenance":false,"terminal_type":"free","bike_list":[],"bike_numbers":[],"bike_types":{},"place_type":"0","rack_locks":false},{"uid":10059545,"lat":50.706816,"lng":7.033889,"bike":false,"name":"Malteser Krankenhaus","address":null,"spot":true,"number":4984,"booked_bikes":0,"bikes":0,"bikes_available_to_rent":0,"bike_racks":0,"free_racks":0,"special_racks":0,"free_special_racks":0,"maintenance":false,"terminal_type":"free","bike_list":[],"bike_numbers":[],"bike_types":{},"place_type":"0","rack_locks":false},{"uid":10059589,"lat":50.69206,"lng":7.064745,"bike":false,"name":"Ückesdorf","address":null,"spot":true,"number":4985,"booked_bikes":0,"bikes":1,"bikes_available_to_rent":1,"bike_racks":0,"free_racks":0,"special_racks":0,"free_special_racks":0,"maintenance":false,"terminal_type":"free","bike_list":[{"number":"45295","bike_type":71,"lock_types":["frame_lock"],"active":true,"state":"ok","electric_lock":true,"boardcomputer":7551012818,"pedelec_battery":null,"battery_pack":null}],"bike_numbers":["45295"],"bike_types":{"71":1},"place_type":"0","rack_locks":false},{"uid":10059595,"lat":50.678006,"lng":7.070915,"bike":false,"name":"Röttgen","address":null,"spot":true,"number":4986,"booked_bikes":0,"bikes":0,"bikes_available_to_rent":0,"bike_racks":0,"free_racks":0,"special_racks":0,"free_special_racks":0,"maintenance":false,"terminal_type":"free","bike_list":[],"bike_numbers":[],"bike_types":{},"place_type":"0","rack_locks":false},{"uid":10059613,"lat":50.664601,"lng":7.171181,"bike":false,"name":"Lannesdorf Mitte","address":null,"spot":true,"number":4987,"booked_bikes":0,"bikes":0,"bikes_available_to_rent":0,"bike_racks":0,"free_racks":0,"special_racks":0,"free_special_racks":0,"maintenance":false,"terminal_type":"free","bike_list":[],"bike_numbers":[],"bike_types":{},"place_type":"0","rack_locks":false},{"uid":10059620,"lat":50.670497,"lng":7.16116,"bike":false,"name":"Muffendorf Kommende","address":null,"spot":true,"number":4988,"booked_bikes":0,"bikes":0,"bikes_available_to_rent":0,"bike_racks":0,"free_racks":0,"special_racks":0,"free_special_racks":0,"maintenance":false,"terminal_type":"free","bike_list":[],"bike_numbers":[],"bike_types":{},"place_type":"0","rack_locks":false},{"uid":10059626,"lat":50.698048,"lng":7.126812,"bike":false,"name":"Friesdorf Klufterplatz","address":null,"spot":true,"number":4989,"booked_bikes":0,"bikes":0,"bikes_available_to_rent":0,"bike_racks":0,"free_racks":0,"special_racks":0,"free_special_racks":0,"maintenance":false,"terminal_type":"free","bike_list":[],"bike_numbers":[],"bike_types":{},"place_type":"0","rack_locks":false},{"uid":10478976,"lat":50.739942,"lng":7.103106,"bike":false,"name":"SWB Haupteingang","address":null,"spot":true,"number":4972,"booked_bikes":0,"bikes":0,"bikes_available_to_rent":0,"bike_racks":0,"free_racks":0,"special_racks":0,"free_special_racks":0,"maintenance":false,"terminal_type":"free","bike_list":[],"bike_numbers":[],"bike_types":{},"place_type":"0","rack_locks":false},{"uid":10666213,"lat":50.734985,"lng":7.061752,"bike":false,"name":"Endenich Nord/ Auf dem Hügel","address":null,"spot":true,"number":4739,"booked_bikes":0,"bikes":0,"bikes_available_to_rent":0,"bike_racks":0,"free_racks":0,"special_racks":0,"free_special_racks":0,"maintenance":false,"terminal_type":"free","bike_list":[],"bike_numbers":[],"bike_types":{},"place_type":"0","rack_locks":false},{"uid":12528644,"lat":50.704497,"lng":7.112296,"bike":false,"name":"Quirinusplatz","address":null,"spot":true,"number":4780,"booked_bikes":0,"bikes":0,"bikes_available_to_rent":0,"bike_racks":0,"free_racks":0,"special_racks":0,"free_special_racks":0,"maintenance":false,"terminal_type":"free","bike_list":[],"bike_numbers":[],"bike_types":{},"place_type":"0","rack_locks":false},{"uid":12585369,"lat":50.715809,"lng":7.050042,"bike":false,"name":"Rochusstraße","address":null,"spot":true,"number":4897,"booked_bikes":0,"bikes":0,"bikes_available_to_rent":0,"bike_racks":0,"free_racks":0,"special_racks":0,"free_special_racks":0,"maintenance":false,"terminal_type":"free","bike_list":[],"bike_numbers":[],"bike_types":{},"place_type":"0","rack_locks":false},{"uid":16804329,"lat":50.739524,"lng":7.117767,"bike":false,"name":"Konrad-Adenauer-Platz","address":null,"spot":true,"number":4783,"booked_bikes":0,"bikes":0,"bikes_available_to_rent":0,"bike_racks":0,"free_racks":0,"special_racks":0,"free_special_racks":0,"maintenance":false,"terminal_type":"free","bike_list":[],"bike_numbers":[],"bike_types":{},"place_type":"0","rack_locks":false},{"uid":47317759,"lat":50.757551,"lng":7.143828,"bike":true,"name":"BIKE 45111","address":null,"spot":false,"number":0,"booked_bikes":0,"bikes":1,"bikes_available_to_rent":1,"bike_racks":0,"free_racks":0,"special_racks":0,"free_special_racks":0,"maintenance":false,"terminal_type":"","bike_list":[{"number":"45111","bike_type":71,"lock_types":["frame_lock"],"active":true,"state":"ok","electric_lock":true,"boardcomputer":7551056365,"pedelec_battery":null,"battery_pack":null}],"bike_numbers":["45111"],"bike_types":{"71":1},"place_type":"12","rack_locks":false},{"uid":47327162,"lat":50.658391,"lng":7.199608,"bike":true,"name":"BIKE 45242","address":null,"spot":false,"number":0,"booked_bikes":0,"bikes":1,"bikes_available_to_rent":1,"bike_racks":0,"free_racks":0,"special_racks":0,"free_special_racks":0,"maintenance":false,"terminal_type":"","bike_list":[{"number":"45242","bike_type":71,"lock_types":["frame_lock"],"active":true,"state":"ok","electric_lock":true,"boardcomputer":7551012235,"pedelec_battery":null,"battery_pack":null}],"bike_numbers":["45242"],"bike_types":{"71":1},"place_type":"12","rack_locks":false},{"uid":47341973,"lat":50.759684,"lng":7.148311,"bike":true,"name":"BIKE 45498","address":null,"spot":false,"number":0,"booked_bikes":0,"bikes":1,"bikes_available_to_rent":1,"bike_racks":0,"free_racks":0,"special_racks":0,"free_special_racks":0,"maintenance":false,"terminal_type":"","bike_list":[{"number":"45498","bike_type":71,"lock_types":["frame_lock"],"active":true,"state":"ok","electric_lock":true,"boardcomputer":7551056998,"pedelec_battery":null,"battery_pack":null}],"bike_numbers":["45498"],"bike_types":{"71":1},"place_type":"12","rack_locks":false},{"uid":47369103,"lat":50.741111,"lng":7.113868,"bike":true,"name":"BIKE 45204","address":null,"spot":false,"number":0,"booked_bikes":0,"bikes":1,"bikes_available_to_rent":1,"bike_racks":0,"free_racks":0,"special_racks":0,"free_special_racks":0,"maintenance":false,"terminal_type":"","bike_list":[{"number":"45204","bike_type":0,"lock_types":["frame_lock"],"active":true,"state":"ok","electric_lock":true,"boardcomputer":7551004429,"pedelec_battery":null,"battery_pack":null}],"bike_numbers":["45204"],"bike_types":{"undefined":1},"place_type":"12","rack_locks":false},{"uid":47412425,"lat":50.675178,"lng":7.190855,"bike":true,"name":"BIKE 45508","address":null,"spot":false,"number":0,"booked_bikes":0,"bikes":1,"bikes_available_to_rent":1,"bike_racks":0,"free_racks":0,"special_racks":0,"free_special_racks":0,"maintenance":false,"terminal_type":"","bike_list":[{"number":"45508","bike_type":71,"lock_types":["frame_lock"],"active":true,"state":"ok","electric_lock":true,"boardcomputer":7551057061,"pedelec_battery":null,"battery_pack":null}],"bike_numbers":["45508"],"bike_types":{"71":1},"place_type":"12","rack_locks":false},{"uid":47416991,"lat":50.725973,"lng":7.157893,"bike":true,"name":"BIKE 45109","address":null,"spot":false,"number":0,"booked_bikes":0,"bikes":1,"bikes_available_to_rent":1,"bike_racks":0,"free_racks":0,"special_racks":0,"free_special_racks":0,"maintenance":false,"terminal_type":"","bike_list":[{"number":"45109","bike_type":71,"lock_types":["frame_lock"],"active":true,"state":"ok","electric_lock":true,"boardcomputer":7551004738,"pedelec_battery":null,"battery_pack":null}],"bike_numbers":["45109"],"bike_types":{"71":1},"place_type":"12","rack_locks":false},{"uid":47424054,"lat":50.711827,"lng":7.176856,"bike":true,"name":"BIKE 44742","address":null,"spot":false,"number":0,"booked_bikes":0,"bikes":1,"bikes_available_to_rent":1,"bike_racks":0,"free_racks":0,"special_racks":0,"free_special_racks":0,"maintenance":false,"terminal_type":"","bike_list":[{"number":"44742","bike_type":71,"lock_types":["frame_lock"],"active":true,"state":"ok","electric_lock":true,"boardcomputer":7551059377,"pedelec_battery":null,"battery_pack":null}],"bike_numbers":["44742"],"bike_types":{"71":1},"place_type":"12","rack_locks":false},{"uid":47430967,"lat":50.759378,"lng":7.147661,"bike":true,"name":"BIKE 45026","address":null,"spot":false,"number":0,"booked_bikes":0,"bikes":1,"bikes_available_to_rent":1,"bike_racks":0,"free_racks":0,"special_racks":0,"free_special_racks":0,"maintenance":false,"terminal_type":"","bike_list":[{"number":"45026","bike_type":71,"lock_types":["frame_lock"],"active":true,"state":"ok","electric_lock":true,"boardcomputer":7551057008,"pedelec_battery":null,"battery_pack":null}],"bike_numbers":["45026"],"bike_types":{"71":1},"place_type":"12","rack_locks":false},{"uid":47440383,"lat":50.756413,"lng":7.14981,"bike":true,"name":"BIKE 45262","address":null,"spot":false,"number":0,"booked_bikes":0,"bikes":1,"bikes_available_to_rent":1,"bike_racks":0,"free_racks":0,"special_racks":0,"free_special_racks":0,"maintenance":false,"terminal_type":"","bike_list":[{"number":"45262","bike_type":71,"lock_types":["frame_lock"],"active":true,"state":"ok","electric_lock":true,"boardcomputer":7551063784,"pedelec_battery":null,"battery_pack":null}],"bike_numbers":["45262"],"bike_types":{"71":1},"place_type":"12","rack_locks":false},{"uid":47448700,"lat":50.755911,"lng":7.086539,"bike":true,"name":"BIKE 45319","address":null,"spot":false,"number":0,"booked_bikes":0,"bikes":1,"bikes_available_to_rent":1,"bike_racks":0,"free_racks":0,"special_racks":0,"free_special_racks":0,"maintenance":false,"terminal_type":"","bike_list":[{"number":"45319","bike_type":71,"lock_types":["frame_lock"],"active":true,"state":"ok","electric_lock":true,"boardcomputer":7551004035,"pedelec_battery":null,"battery_pack":null}],"bike_numbers":["45319"],"bike_types":{"71":1},"place_type":"12","rack_locks":false},{"uid":47451443,"lat":50.724618,"lng":7.048852,"bike":true,"name":"BIKE 44569","address":null,"spot":false,"number":0,"booked_bikes":0,"bikes":1,"bikes_available_to_rent":1,"bike_racks":0,"free_racks":0,"special_racks":0,"free_special_racks":0,"maintenance":false,"terminal_type":"","bike_list":[{"number":"44569","bike_type":71,"lock_types":["frame_lock"],"active":true,"state":"ok","electric_lock":true,"boardcomputer":7551061561,"pedelec_battery":null,"battery_pack":null}],"bike_numbers":["44569"],"bike_types":{"71":1},"place_type":"12","rack_locks":false},{"uid":47485213,"lat":50.767342,"lng":7.069428,"bike":true,"name":"BIKE 45495","address":null,"spot":false,"number":0,"booked_bikes":0,"bikes":1,"bikes_available_to_rent":1,"bike_racks":0,"free_racks":0,"special_racks":0,"free_special_racks":0,"maintenance":false,"terminal_type":"","bike_list":[{"number":"45495","bike_type":71,"lock_types":["frame_lock"],"active":true,"state":"ok","electric_lock":true,"boardcomputer":7551057135,"pedelec_battery":null,"battery_pack":null}],"bike_numbers":["45495"],"bike_types":{"71":1},"place_type":"12","rack_locks":false},{"uid":47485466,"lat":50.760298,"lng":7.114931,"bike":true,"name":"BIKE 45509","address":null,"spot":false,"number":0,"booked_bikes":0,"bikes":1,"bikes_available_to_rent":1,"bike_racks":0,"free_racks":0,"special_racks":0,"free_special_racks":0,"maintenance":false,"terminal_type":"","bike_list":[{"number":"45509","bike_type":71,"lock_types":["frame_lock"],"active":true,"state":"ok","electric_lock":true,"boardcomputer":7551056235,"pedelec_battery":null,"battery_pack":null}],"bike_numbers":["45509"],"bike_types":{"71":1},"place_type":"12","rack_locks":false},{"uid":47498260,"lat":50.661387,"lng":7.19434,"bike":true,"name":"BIKE 44582","address":null,"spot":false,"number":0,"booked_bikes":0,"bikes":1,"bikes_available_to_rent":1,"bike_racks":0,"free_racks":0,"special_racks":0,"free_special_racks":0,"maintenance":false,"terminal_type":"","bike_list":[{"number":"44582","bike_type":71,"lock_types":["frame_lock"],"active":true,"state":"ok","electric_lock":true,"boardcomputer":7551004920,"pedelec_battery":null,"battery_pack":null}],"bike_numbers":["44582"],"bike_types":{"71":1},"place_type":"12","rack_locks":false},{"uid":47499775,"lat":50.716236,"lng":7.07116,"bike":true,"name":"BIKE 45051","address":null,"spot":false,"number":0,"booked_bikes":0,"bikes":1,"bikes_available_to_rent":1,"bike_racks":0,"free_racks":0,"special_racks":0,"free_special_racks":0,"maintenance":false,"terminal_type":"","bike_list":[{"number":"45051","bike_type":71,"lock_types":["frame_lock"],"active":true,"state":"ok","electric_lock":true,"boardcomputer":7551057123,"pedelec_battery":null,"battery_pack":null}],"bike_numbers":["45051"],"bike_types":{"71":1},"place_type":"12","rack_locks":false},{"uid":47506139,"lat":50.672053,"lng":7.144374,"bike":true,"name":"BIKE 44707","address":null,"spot":false,"number":0,"booked_bikes":0,"bikes":1,"bikes_available_to_rent":1,"bike_racks":0,"free_racks":0,"special_racks":0,"free_special_racks":0,"maintenance":false,"terminal_type":"","bike_list":[{"number":"44707","bike_type":71,"lock_types":["frame_lock"],"active":true,"state":"ok","electric_lock":true,"boardcomputer":7551056822,"pedelec_battery":null,"battery_pack":null}],"bike_numbers":["44707"],"bike_types":{"71":1},"place_type":"12","rack_locks":false},{"uid":47506538,"lat":50.75188,"lng":7.047186,"bike":true,"name":"BIKE 45090","address":null,"spot":false,"number":0,"booked_bikes":0,"bikes":1,"bikes_available_to_rent":1,"bike_racks":0,"free_racks":0,"special_racks":0,"free_special_racks":0,"maintenance":false,"terminal_type":"","bike_list":[{"number":"45090","bike_type":71,"lock_types":["frame_lock"],"active":true,"state":"ok","electric_lock":true,"boardcomputer":7551004638,"pedelec_battery":null,"battery_pack":null}],"bike_numbers":["45090"],"bike_types":{"71":1},"place_type":"12","rack_locks":false},{"uid":47507469,"lat":50.694742,"lng":7.089032,"bike":true,"name":"BIKE 44836","address":null,"spot":false,"number":0,"booked_bikes":0,"bikes":1,"bikes_available_to_rent":1,"bike_racks":0,"free_racks":0,"special_racks":0,"free_special_racks":0,"maintenance":false,"terminal_type":"","bike_list":[{"number":"44836","bike_type":71,"lock_types":["frame_lock"],"active":true,"state":"ok","electric_lock":true,"boardcomputer":7551057106,"pedelec_battery":null,"battery_pack":null}],"bike_numbers":["44836"],"bike_types":{"71":1},"place_type":"12","rack_locks":false},{"uid":47509408,"lat":50.715591,"lng":7.144098,"bike":true,"name":"BIKE 45419","address":null,"spot":false,"number":0,"booked_bikes":0,"bikes":1,"bikes_available_to_rent":1,"bike_racks":0,"free_racks":0,"special_racks":0,"free_special_racks":0,"maintenance":false,"terminal_type":"","bike_list":[{"number":"45419","bike_type":71,"lock_types":["frame_lock"],"active":true,"state":"ok","electric_lock":true,"boardcomputer":7551058644,"pedelec_battery":null,"battery_pack":null}],"bike_numbers":["45419"],"bike_types":{"71":1},"place_type":"12","rack_locks":false},{"uid":47509892,"lat":50.675302,"lng":7.184365,"bike":true,"name":"BIKE 45101","address":null,"spot":false,"number":0,"booked_bikes":0,"bikes":1,"bikes_available_to_rent":1,"bike_racks":0,"free_racks":0,"special_racks":0,"free_special_racks":0,"maintenance":false,"terminal_type":"","bike_list":[{"number":"45101","bike_type":71,"lock_types":["frame_lock"],"active":true,"state":"ok","electric_lock":true,"boardcomputer":7551006360,"pedelec_battery":null,"battery_pack":null}],"bike_numbers":["45101"],"bike_types":{"71":1},"place_type":"12","rack_locks":false},{"uid":47511352,"lat":50.744391,"lng":7.075917,"bike":true,"name":"BIKE 45053","address":null,"spot":false,"number":0,"booked_bikes":0,"bikes":1,"bikes_available_to_rent":1,"bike_racks":0,"free_racks":0,"special_racks":0,"free_special_racks":0,"maintenance":false,"terminal_type":"","bike_list":[{"number":"45053","bike_type":71,"lock_types":["frame_lock"],"active":true,"state":"ok","electric_lock":true,"boardcomputer":7551063563,"pedelec_battery":null,"battery_pack":null}],"bike_numbers":["45053"],"bike_types":{"71":1},"place_type":"12","rack_locks":false},{"uid":47512661,"lat":50.74732,"lng":7.129861,"bike":true,"name":"BIKE 45374","address":null,"spot":false,"number":0,"booked_bikes":0,"bikes":1,"bikes_available_to_rent":1,"bike_racks":0,"free_racks":0,"special_racks":0,"free_special_racks":0,"maintenance":false,"terminal_type":"","bike_list":[{"number":"45374","bike_type":71,"lock_types":["frame_lock"],"active":true,"state":"ok","electric_lock":true,"boardcomputer":7551021856,"pedelec_battery":null,"battery_pack":null}],"bike_numbers":["45374"],"bike_types":{"71":1},"place_type":"12","rack_locks":false},{"uid":47512769,"lat":50.738382,"lng":7.050088,"bike":true,"name":"BIKE 45507","address":null,"spot":false,"number":0,"booked_bikes":0,"bikes":1,"bikes_available_to_rent":1,"bike_racks":0,"free_racks":0,"special_racks":0,"free_special_racks":0,"maintenance":false,"terminal_type":"","bike_list":[{"number":"45507","bike_type":71,"lock_types":["frame_lock"],"active":true,"state":"ok","electric_lock":true,"boardcomputer":7551058217,"pedelec_battery":null,"battery_pack":null}],"bike_numbers":["45507"],"bike_types":{"71":1},"place_type":"12","rack_locks":false},{"uid":47513306,"lat":50.760622,"lng":7.052452,"bike":true,"name":"BIKE 44881","address":null,"spot":false,"number":0,"booked_bikes":0,"bikes":1,"bikes_available_to_rent":1,"bike_racks":0,"free_racks":0,"special_racks":0,"free_special_racks":0,"maintenance":false,"terminal_type":"","bike_list":[{"number":"44881","bike_type":71,"lock_types":["frame_lock"],"active":true,"state":"ok","electric_lock":true,"boardcomputer":7551003282,"pedelec_battery":null,"battery_pack":null}],"bike_numbers":["44881"],"bike_types":{"71":1},"place_type":"12","rack_locks":false},{"uid":47514121,"lat":50.763493,"lng":7.055378,"bike":true,"name":"BIKE 45290","address":null,"spot":false,"number":0,"booked_bikes":0,"bikes":1,"bikes_available_to_rent":1,"bike_racks":0,"free_racks":0,"special_racks":0,"free_special_racks":0,"maintenance":false,"terminal_type":"","bike_list":[{"number":"45290","bike_type":71,"lock_types":["frame_lock"],"active":true,"state":"ok","electric_lock":true,"boardcomputer":7551013511,"pedelec_battery":null,"battery_pack":null}],"bike_numbers":["45290"],"bike_types":{"71":1},"place_type":"12","rack_locks":false},{"uid":47514385,"lat":50.752791,"lng":7.117098,"bike":true,"name":"BIKE 44585","address":null,"spot":false,"number":0,"booked_bikes":0,"bikes":1,"bikes_available_to_rent":1,"bike_racks":0,"free_racks":0,"special_racks":0,"free_special_racks":0,"maintenance":false,"terminal_type":"","bike_list":[{"number":"44585","bike_type":71,"lock_types":["frame_lock"],"active":true,"state":"ok","electric_lock":true,"boardcomputer":7551004681,"pedelec_battery":null,"battery_pack":null}],"bike_numbers":["44585"],"bike_types":{"71":1},"place_type":"12","rack_locks":false},{"uid":47515933,"lat":50.749391,"lng":7.058237,"bike":true,"name":"BIKE 45279","address":null,"spot":false,"number":0,"booked_bikes":0,"bikes":1,"bikes_available_to_rent":1,"bike_racks":0,"free_racks":0,"special_racks":0,"free_special_racks":0,"maintenance":false,"terminal_type":"","bike_list":[{"number":"45279","bike_type":71,"lock_types":["frame_lock"],"active":true,"state":"ok","electric_lock":true,"boardcomputer":7551056880,"pedelec_battery":null,"battery_pack":null}],"bike_numbers":["45279"],"bike_types":{"71":1},"place_type":"12","rack_locks":false},{"uid":47516297,"lat":50.720173,"lng":7.047003,"bike":true,"name":"BIKE 44557","address":null,"spot":false,"number":0,"booked_bikes":0,"bikes":1,"bikes_available_to_rent":1,"bike_racks":0,"free_racks":0,"special_racks":0,"free_special_racks":0,"maintenance":false,"terminal_type":"","bike_list":[{"number":"44557","bike_type":71,"lock_types":["frame_lock"],"active":true,"state":"ok","electric_lock":true,"boardcomputer":7551057130,"pedelec_battery":null,"battery_pack":null}],"bike_numbers":["44557"],"bike_types":{"71":1},"place_type":"12","rack_locks":false},{"uid":47517078,"lat":50.655396,"lng":7.196076,"bike":true,"name":"BIKE 45458","address":null,"spot":false,"number":0,"booked_bikes":0,"bikes":1,"bikes_available_to_rent":1,"bike_racks":0,"free_racks":0,"special_racks":0,"free_special_racks":0,"maintenance":false,"terminal_type":"","bike_list":[{"number":"45458","bike_type":71,"lock_types":["frame_lock"],"active":true,"state":"ok","electric_lock":true,"boardcomputer":7551017878,"pedelec_battery":null,"battery_pack":null}],"bike_numbers":["45458"],"bike_types":{"71":1},"place_type":"12","rack_locks":false},{"uid":47521980,"lat":50.757031,"lng":7.067842,"bike":true,"name":"BIKE 45018","address":null,"spot":false,"number":0,"booked_bikes":0,"bikes":1,"bikes_available_to_rent":1,"bike_racks":0,"free_racks":0,"special_racks":0,"free_special_racks":0,"maintenance":false,"terminal_type":"","bike_list":[{"number":"45018","bike_type":71,"lock_types":["frame_lock"],"active":true,"state":"ok","electric_lock":true,"boardcomputer":7551012472,"pedelec_battery":null,"battery_pack":null}],"bike_numbers":["45018"],"bike_types":{"71":1},"place_type":"12","rack_locks":false},{"uid":47524612,"lat":50.712418,"lng":7.031592,"bike":true,"name":"BIKE 45063","address":null,"spot":false,"number":0,"booked_bikes":0,"bikes":1,"bikes_available_to_rent":1,"bike_racks":0,"free_racks":0,"special_racks":0,"free_special_racks":0,"maintenance":false,"terminal_type":"","bike_list":[{"number":"45063","bike_type":71,"lock_types":["frame_lock"],"active":true,"state":"ok","electric_lock":true,"boardcomputer":7551057006,"pedelec_battery":null,"battery_pack":null}],"bike_numbers":["45063"],"bike_types":{"71":1},"place_type":"12","rack_locks":false},{"uid":47525783,"lat":50.743449,"lng":7.135038,"bike":true,"name":"BIKE 44777","address":null,"spot":false,"number":0,"booked_bikes":0,"bikes":1,"bikes_available_to_rent":1,"bike_racks":0,"free_racks":0,"special_racks":0,"free_special_racks":0,"maintenance":false,"terminal_type":"","bike_list":[{"number":"44777","bike_type":71,"lock_types":["frame_lock"],"active":true,"state":"ok","electric_lock":true,"boardcomputer":7551057125,"pedelec_battery":null,"battery_pack":null}],"bike_numbers":["44777"],"bike_types":{"71":1},"place_type":"12","rack_locks":false},{"uid":47526057,"lat":50.756298,"lng":7.149854,"bike":true,"name":"BIKE 44884","address":null,"spot":false,"number":0,"booked_bikes":0,"bikes":1,"bikes_available_to_rent":1,"bike_racks":0,"free_racks":0,"special_racks":0,"free_special_racks":0,"maintenance":false,"terminal_type":"","bike_list":[{"number":"44884","bike_type":71,"lock_types":["frame_lock"],"active":true,"state":"ok","electric_lock":true,"boardcomputer":7551058650,"pedelec_battery":null,"battery_pack":null}],"bike_numbers":["44884"],"bike_types":{"71":1},"place_type":"12","rack_locks":false},{"uid":47526599,"lat":50.768293,"lng":7.067876,"bike":true,"name":"BIKE 45382","address":null,"spot":false,"number":0,"booked_bikes":0,"bikes":1,"bikes_available_to_rent":1,"bike_racks":0,"free_racks":0,"special_racks":0,"free_special_racks":0,"maintenance":false,"terminal_type":"","bike_list":[{"number":"45382","bike_type":71,"lock_types":["frame_lock"],"active":true,"state":"ok","electric_lock":true,"boardcomputer":7551056949,"pedelec_battery":null,"battery_pack":null}],"bike_numbers":["45382"],"bike_types":{"71":1},"place_type":"12","rack_locks":false},{"uid":47526680,"lat":50.76192,"lng":7.05832,"bike":true,"name":"BIKE 44923","address":null,"spot":false,"number":0,"booked_bikes":0,"bikes":1,"bikes_available_to_rent":1,"bike_racks":0,"free_racks":0,"special_racks":0,"free_special_racks":0,"maintenance":false,"terminal_type":"","bike_list":[{"number":"44923","bike_type":71,"lock_types":["frame_lock"],"active":true,"state":"ok","electric_lock":true,"boardcomputer":7551014688,"pedelec_battery":null,"battery_pack":null}],"bike_numbers":["44923"],"bike_types":{"71":1},"place_type":"12","rack_locks":false},{"uid":47527325,"lat":50.753684,"lng":7.136583,"bike":true,"name":"BIKE 45461","address":null,"spot":false,"number":0,"booked_bikes":0,"bikes":1,"bikes_available_to_rent":1,"bike_racks":0,"free_racks":0,"special_racks":0,"free_special_racks":0,"maintenance":false,"terminal_type":"","bike_list":[{"number":"45461","bike_type":71,"lock_types":["frame_lock"],"active":true,"state":"ok","electric_lock":true,"boardcomputer":7551036699,"pedelec_battery":null,"battery_pack":null}],"bike_numbers":["45461"],"bike_types":{"71":1},"place_type":"12","rack_locks":false},{"uid":47527684,"lat":50.735596,"lng":7.141646,"bike":true,"name":"BIKE 44619","address":null,"spot":false,"number":0,"booked_bikes":0,"bikes":1,"bikes_available_to_rent":1,"bike_racks":0,"free_racks":0,"special_racks":0,"free_special_racks":0,"maintenance":false,"terminal_type":"","bike_list":[{"number":"44619","bike_type":71,"lock_types":["frame_lock"],"active":true,"state":"ok","electric_lock":true,"boardcomputer":7551012480,"pedelec_battery":null,"battery_pack":null}],"bike_numbers":["44619"],"bike_types":{"71":1},"place_type":"12","rack_locks":false},{"uid":47528869,"lat":50.694262,"lng":7.157705,"bike":true,"name":"BIKE 45047","address":null,"spot":false,"number":0,"booked_bikes":0,"bikes":1,"bikes_available_to_rent":1,"bike_racks":0,"free_racks":0,"special_racks":0,"free_special_racks":0,"maintenance":false,"terminal_type":"","bike_list":[{"number":"45047","bike_type":71,"lock_types":["frame_lock"],"active":true,"state":"ok","electric_lock":true,"boardcomputer":7551004071,"pedelec_battery":null,"battery_pack":null}],"bike_numbers":["45047"],"bike_types":{"71":1},"place_type":"12","rack_locks":false},{"uid":47530944,"lat":50.753111,"lng":7.015435,"bike":true,"name":"BIKE 46096","address":null,"spot":false,"number":0,"booked_bikes":0,"bikes":1,"bikes_available_to_rent":1,"bike_racks":0,"free_racks":0,"special_racks":0,"free_special_racks":0,"maintenance":false,"terminal_type":"","bike_list":[{"number":"46096","bike_type":143,"lock_types":["frame_lock"],"active":true,"state":"ok","electric_lock":true,"boardcomputer":7551082404,"pedelec_battery":58,"battery_pack":{"percentage":58}}],"bike_numbers":["46096"],"bike_types":{"143":1},"place_type":"20","rack_locks":false},{"uid":47534879,"lat":50.731129,"lng":7.136498,"bike":true,"name":"BIKE 44849","address":null,"spot":false,"number":0,"booked_bikes":0,"bikes":1,"bikes_available_to_rent":1,"bike_racks":0,"free_racks":0,"special_racks":0,"free_special_racks":0,"maintenance":false,"terminal_type":"","bike_list":[{"number":"44849","bike_type":71,"lock_types":["frame_lock"],"active":true,"state":"ok","electric_lock":true,"boardcomputer":7551003391,"pedelec_battery":null,"battery_pack":null}],"bike_numbers":["44849"],"bike_types":{"71":1},"place_type":"12","rack_locks":false},{"uid":47535877,"lat":50.654907,"lng":7.192447,"bike":true,"name":"BIKE 44567","address":null,"spot":false,"number":0,"booked_bikes":0,"bikes":1,"bikes_available_to_rent":1,"bike_racks":0,"free_racks":0,"special_racks":0,"free_special_racks":0,"maintenance":false,"terminal_type":"","bike_list":[{"number":"44567","bike_type":71,"lock_types":["frame_lock"],"active":true,"state":"ok","electric_lock":true,"boardcomputer":7551020418,"pedelec_battery":null,"battery_pack":null}],"bike_numbers":["44567"],"bike_types":{"71":1},"place_type":"12","rack_locks":false},{"uid":47537692,"lat":50.750342,"lng":7.125743,"bike":true,"name":"BIKE 44517","address":null,"spot":false,"number":0,"booked_bikes":0,"bikes":1,"bikes_available_to_rent":1,"bike_racks":0,"free_racks":0,"special_racks":0,"free_special_racks":0,"maintenance":false,"terminal_type":"","bike_list":[{"number":"44517","bike_type":71,"lock_types":["frame_lock"],"active":true,"state":"ok","electric_lock":true,"boardcomputer":7551004575,"pedelec_battery":null,"battery_pack":null}],"bike_numbers":["44517"],"bike_types":{"71":1},"place_type":"12","rack_locks":false},{"uid":47537986,"lat":50.759458,"lng":7.150011,"bike":true,"name":"BIKE 45231","address":null,"spot":false,"number":0,"booked_bikes":0,"bikes":1,"bikes_available_to_rent":1,"bike_racks":0,"free_racks":0,"special_racks":0,"free_special_racks":0,"maintenance":false,"terminal_type":"","bike_list":[{"number":"45231","bike_type":71,"lock_types":["frame_lock"],"active":true,"state":"ok","electric_lock":true,"boardcomputer":7551057029,"pedelec_battery":null,"battery_pack":null}],"bike_numbers":["45231"],"bike_types":{"71":1},"place_type":"12","rack_locks":false},{"uid":47538344,"lat":50.705484,"lng":7.171355,"bike":true,"name":"BIKE 45237","address":null,"spot":false,"number":0,"booked_bikes":0,"bikes":1,"bikes_available_to_rent":1,"bike_racks":0,"free_racks":0,"special_racks":0,"free_special_racks":0,"maintenance":false,"terminal_type":"","bike_list":[{"number":"45237","bike_type":71,"lock_types":["frame_lock"],"active":true,"state":"ok","electric_lock":true,"boardcomputer":7551011955,"pedelec_battery":null,"battery_pack":null}],"bike_numbers":["45237"],"bike_types":{"71":1},"place_type":"12","rack_locks":false},{"uid":47540889,"lat":50.750187,"lng":7.039598,"bike":true,"name":"BIKE 44811","address":null,"spot":false,"number":0,"booked_bikes":0,"bikes":1,"bikes_available_to_rent":1,"bike_racks":0,"free_racks":0,"special_racks":0,"free_special_racks":0,"maintenance":false,"terminal_type":"","bike_list":[{"number":"44811","bike_type":71,"lock_types":["frame_lock"],"active":true,"state":"ok","electric_lock":true,"boardcomputer":7551063791,"pedelec_battery":null,"battery_pack":null}],"bike_numbers":["44811"],"bike_types":{"71":1},"place_type":"12","rack_locks":false},{"uid":47541299,"lat":50.698431,"lng":7.166147,"bike":true,"name":"BIKE 44545","address":null,"spot":false,"number":0,"booked_bikes":0,"bikes":1,"bikes_available_to_rent":1,"bike_racks":0,"free_racks":0,"special_racks":0,"free_special_racks":0,"maintenance":false,"terminal_type":"","bike_list":[{"number":"44545","bike_type":71,"lock_types":["frame_lock"],"active":true,"state":"ok","electric_lock":true,"boardcomputer":7551056820,"pedelec_battery":null,"battery_pack":null}],"bike_numbers":["44545"],"bike_types":{"71":1},"place_type":"12","rack_locks":false},{"uid":47543433,"lat":50.71508,"lng":7.037312,"bike":true,"name":"BIKE 44594","address":null,"spot":false,"number":0,"booked_bikes":0,"bikes":1,"bikes_available_to_rent":1,"bike_racks":0,"free_racks":0,"special_racks":0,"free_special_racks":0,"maintenance":false,"terminal_type":"","bike_list":[{"number":"44594","bike_type":71,"lock_types":["frame_lock"],"active":true,"state":"ok","electric_lock":true,"boardcomputer":7551056978,"pedelec_battery":null,"battery_pack":null}],"bike_numbers":["44594"],"bike_types":{"71":1},"place_type":"12","rack_locks":false},{"uid":47544171,"lat":50.695947,"lng":7.143656,"bike":true,"name":"BIKE 45300","address":null,"spot":false,"number":0,"booked_bikes":0,"bikes":1,"bikes_available_to_rent":1,"bike_racks":0,"free_racks":0,"special_racks":0,"free_special_racks":0,"maintenance":false,"terminal_type":"","bike_list":[{"number":"45300","bike_type":71,"lock_types":["frame_lock"],"active":true,"state":"ok","electric_lock":true,"boardcomputer":7551003648,"pedelec_battery":null,"battery_pack":null}],"bike_numbers":["45300"],"bike_types":{"71":1},"place_type":"12","rack_locks":false},{"uid":47546158,"lat":50.746973,"lng":7.053496,"bike":true,"name":"BIKE 44694","address":null,"spot":false,"number":0,"booked_bikes":0,"bikes":1,"bikes_available_to_rent":1,"bike_racks":0,"free_racks":0,"special_racks":0,"free_special_racks":0,"maintenance":false,"terminal_type":"","bike_list":[{"number":"44694","bike_type":71,"lock_types":["frame_lock"],"active":true,"state":"ok","electric_lock":true,"boardcomputer":7551020342,"pedelec_battery":null,"battery_pack":null}],"bike_numbers":["44694"],"bike_types":{"71":1},"place_type":"12","rack_locks":false},{"uid":47546664,"lat":50.758489,"lng":7.103913,"bike":true,"name":"BIKE 44971","address":null,"spot":false,"number":0,"booked_bikes":0,"bikes":1,"bikes_available_to_rent":1,"bike_racks":0,"free_racks":0,"special_racks":0,"free_special_racks":0,"maintenance":false,"terminal_type":"","bike_list":[{"number":"44971","bike_type":71,"lock_types":["frame_lock"],"active":true,"state":"ok","electric_lock":true,"boardcomputer":7551056787,"pedelec_battery":null,"battery_pack":null}],"bike_numbers":["44971"],"bike_types":{"71":1},"place_type":"12","rack_locks":false},{"uid":47547012,"lat":50.699169,"lng":7.133918,"bike":true,"name":"BIKE 45411","address":null,"spot":false,"number":0,"booked_bikes":0,"bikes":1,"bikes_available_to_rent":1,"bike_racks":0,"free_racks":0,"special_racks":0,"free_special_racks":0,"maintenance":false,"terminal_type":"","bike_list":[{"number":"45411","bike_type":71,"lock_types":["frame_lock"],"active":true,"state":"ok","electric_lock":true,"boardcomputer":7551057859,"pedelec_battery":null,"battery_pack":null}],"bike_numbers":["45411"],"bike_types":{"71":1},"place_type":"12","rack_locks":false},{"uid":47547105,"lat":50.757267,"lng":7.132059,"bike":true,"name":"BIKE 45410","address":null,"spot":false,"number":0,"booked_bikes":0,"bikes":1,"bikes_available_to_rent":1,"bike_racks":0,"free_racks":0,"special_racks":0,"free_special_racks":0,"maintenance":false,"terminal_type":"","bike_list":[{"number":"45410","bike_type":71,"lock_types":["frame_lock"],"active":true,"state":"ok","electric_lock":true,"boardcomputer":7551055520,"pedelec_battery":null,"battery_pack":null}],"bike_numbers":["45410"],"bike_types":{"71":1},"place_type":"12","rack_locks":false},{"uid":47550090,"lat":50.673618,"lng":7.191713,"bike":true,"name":"BIKE 45372","address":null,"spot":false,"number":0,"booked_bikes":0,"bikes":1,"bikes_available_to_rent":1,"bike_racks":0,"free_racks":0,"special_racks":0,"free_special_racks":0,"maintenance":false,"terminal_type":"","bike_list":[{"number":"45372","bike_type":71,"lock_types":["frame_lock"],"active":true,"state":"ok","electric_lock":true,"boardcomputer":7551056983,"pedelec_battery":null,"battery_pack":null}],"bike_numbers":["45372"],"bike_types":{"71":1},"place_type":"12","rack_locks":false},{"uid":47550098,"lat":50.673569,"lng":7.191638,"bike":true,"name":"BIKE 44702","address":null,"spot":false,"number":0,"booked_bikes":0,"bikes":1,"bikes_available_to_rent":1,"bike_racks":0,"free_racks":0,"special_racks":0,"free_special_racks":0,"maintenance":false,"terminal_type":"","bike_list":[{"number":"44702","bike_type":71,"lock_types":["frame_lock"],"active":true,"state":"ok","electric_lock":true,"boardcomputer":7551063588,"pedelec_battery":null,"battery_pack":null}],"bike_numbers":["44702"],"bike_types":{"71":1},"place_type":"12","rack_locks":false},{"uid":47551325,"lat":50.75428,"lng":7.082649,"bike":true,"name":"BIKE 44926","address":null,"spot":false,"number":0,"booked_bikes":0,"bikes":1,"bikes_available_to_rent":1,"bike_racks":0,"free_racks":0,"special_racks":0,"free_special_racks":0,"maintenance":false,"terminal_type":"","bike_list":[{"number":"44926","bike_type":71,"lock_types":["frame_lock"],"active":true,"state":"ok","electric_lock":true,"boardcomputer":7551063788,"pedelec_battery":null,"battery_pack":null}],"bike_numbers":["44926"],"bike_types":{"71":1},"place_type":"12","rack_locks":false},{"uid":47553287,"lat":50.761067,"lng":7.054644,"bike":true,"name":"BIKE 45527","address":null,"spot":false,"number":0,"booked_bikes":0,"bikes":1,"bikes_available_to_rent":1,"bike_racks":0,"free_racks":0,"special_racks":0,"free_special_racks":0,"maintenance":false,"terminal_type":"","bike_list":[{"number":"45527","bike_type":71,"lock_types":["frame_lock"],"active":true,"state":"ok","electric_lock":true,"boardcomputer":7551063785,"pedelec_battery":null,"battery_pack":null}],"bike_numbers":["45527"],"bike_types":{"71":1},"place_type":"12","rack_locks":false},{"uid":47553998,"lat":50.705502,"lng":7.175039,"bike":true,"name":"BIKE 44994","address":null,"spot":false,"number":0,"booked_bikes":0,"bikes":1,"bikes_available_to_rent":1,"bike_racks":0,"free_racks":0,"special_racks":0,"free_special_racks":0,"maintenance":false,"terminal_type":"","bike_list":[{"number":"44994","bike_type":71,"lock_types":["frame_lock"],"active":true,"state":"ok","electric_lock":true,"boardcomputer":7551013145,"pedelec_battery":null,"battery_pack":null}],"bike_numbers":["44994"],"bike_types":{"71":1},"place_type":"12","rack_locks":false},{"uid":47554006,"lat":50.705511,"lng":7.17496,"bike":true,"name":"BIKE 45221","address":null,"spot":false,"number":0,"booked_bikes":0,"bikes":1,"bikes_available_to_rent":1,"bike_racks":0,"free_racks":0,"special_racks":0,"free_special_racks":0,"maintenance":false,"terminal_type":"","bike_list":[{"number":"45221","bike_type":150,"lock_types":["frame_lock"],"active":true,"state":"ok","electric_lock":true,"boardcomputer":7551016486,"pedelec_battery":null,"battery_pack":null}],"bike_numbers":["45221"],"bike_types":{"150":1},"place_type":"12","rack_locks":false},{"uid":47554628,"lat":50.751818,"lng":7.052363,"bike":true,"name":"BIKE 45350","address":null,"spot":false,"number":0,"booked_bikes":0,"bikes":1,"bikes_available_to_rent":1,"bike_racks":0,"free_racks":0,"special_racks":0,"free_special_racks":0,"maintenance":false,"terminal_type":"","bike_list":[{"number":"45350","bike_type":71,"lock_types":["frame_lock"],"active":true,"state":"ok","electric_lock":true,"boardcomputer":7551057118,"pedelec_battery":null,"battery_pack":null}],"bike_numbers":["45350"],"bike_types":{"71":1},"place_type":"12","rack_locks":false},{"uid":47554947,"lat":50.750956,"lng":7.157911,"bike":true,"name":"BIKE 45143","address":null,"spot":false,"number":0,"booked_bikes":0,"bikes":1,"bikes_available_to_rent":1,"bike_racks":0,"free_racks":0,"special_racks":0,"free_special_racks":0,"maintenance":false,"terminal_type":"","bike_list":[{"number":"45143","bike_type":71,"lock_types":["frame_lock"],"active":true,"state":"ok","electric_lock":true,"boardcomputer":7551056999,"pedelec_battery":null,"battery_pack":null}],"bike_numbers":["45143"],"bike_types":{"71":1},"place_type":"12","rack_locks":false},{"uid":47555635,"lat":50.695062,"lng":7.166728,"bike":true,"name":"BIKE 45414","address":null,"spot":false,"number":0,"booked_bikes":0,"bikes":1,"bikes_available_to_rent":1,"bike_racks":0,"free_racks":0,"special_racks":0,"free_special_racks":0,"maintenance":false,"terminal_type":"","bike_list":[{"number":"45414","bike_type":71,"lock_types":["frame_lock"],"active":true,"state":"ok","electric_lock":true,"boardcomputer":7551012240,"pedelec_battery":null,"battery_pack":null}],"bike_numbers":["45414"],"bike_types":{"71":1},"place_type":"12","rack_locks":false},{"uid":47555694,"lat":50.756529,"lng":7.152178,"bike":true,"name":"BIKE 44902","address":null,"spot":false,"number":0,"booked_bikes":0,"bikes":1,"bikes_available_to_rent":1,"bike_racks":0,"free_racks":0,"special_racks":0,"free_special_racks":0,"maintenance":false,"terminal_type":"","bike_list":[{"number":"44902","bike_type":71,"lock_types":["frame_lock"],"active":true,"state":"ok","electric_lock":true,"boardcomputer":7551016698,"pedelec_battery":null,"battery_pack":null}],"bike_numbers":["44902"],"bike_types":{"71":1},"place_type":"12","rack_locks":false},{"uid":47556076,"lat":50.714267,"lng":7.139807,"bike":true,"name":"BIKE 45522","address":null,"spot":false,"number":0,"booked_bikes":0,"bikes":1,"bikes_available_to_rent":1,"bike_racks":0,"free_racks":0,"special_racks":0,"free_special_racks":0,"maintenance":false,"terminal_type":"","bike_list":[{"number":"45522","bike_type":71,"lock_types":["frame_lock"],"active":true,"state":"ok","electric_lock":true,"boardcomputer":7551063556,"pedelec_battery":null,"battery_pack":null}],"bike_numbers":["45522"],"bike_types":{"71":1},"place_type":"12","rack_locks":false},{"uid":47556806,"lat":50.751076,"lng":7.049757,"bike":true,"name":"BIKE 45108","address":null,"spot":false,"number":0,"booked_bikes":0,"bikes":1,"bikes_available_to_rent":1,"bike_racks":0,"free_racks":0,"special_racks":0,"free_special_racks":0,"maintenance":false,"terminal_type":"","bike_list":[{"number":"45108","bike_type":71,"lock_types":["frame_lock"],"active":true,"state":"ok","electric_lock":true,"boardcomputer":7551002613,"pedelec_battery":null,"battery_pack":null}],"bike_numbers":["45108"],"bike_types":{"71":1},"place_type":"12","rack_locks":false},{"uid":47556980,"lat":50.758373,"lng":7.148282,"bike":true,"name":"BIKE 44750","address":null,"spot":false,"number":0,"booked_bikes":0,"bikes":1,"bikes_available_to_rent":1,"bike_racks":0,"free_racks":0,"special_racks":0,"free_special_racks":0,"maintenance":false,"terminal_type":"","bike_list":[{"number":"44750","bike_type":71,"lock_types":["frame_lock"],"active":true,"state":"ok","electric_lock":true,"boardcomputer":7551056680,"pedelec_battery":null,"battery_pack":null}],"bike_numbers":["44750"],"bike_types":{"71":1},"place_type":"12","rack_locks":false},{"uid":47557334,"lat":50.714827,"lng":7.025887,"bike":true,"name":"BIKE 44639","address":null,"spot":false,"number":0,"booked_bikes":0,"bikes":1,"bikes_available_to_rent":1,"bike_racks":0,"free_racks":0,"special_racks":0,"free_special_racks":0,"maintenance":false,"terminal_type":"","bike_list":[{"number":"44639","bike_type":71,"lock_types":["frame_lock"],"active":true,"state":"ok","electric_lock":true,"boardcomputer":7551063587,"pedelec_battery":null,"battery_pack":null}],"bike_numbers":["44639"],"bike_types":{"71":1},"place_type":"12","rack_locks":false},{"uid":47557355,"lat":50.659933,"lng":7.189722,"bike":true,"name":"BIKE 45040","address":null,"spot":false,"number":0,"booked_bikes":0,"bikes":1,"bikes_available_to_rent":1,"bike_racks":0,"free_racks":0,"special_racks":0,"free_special_racks":0,"maintenance":false,"terminal_type":"","bike_list":[{"number":"45040","bike_type":71,"lock_types":["frame_lock"],"active":true,"state":"ok","electric_lock":true,"boardcomputer":7551056655,"pedelec_battery":null,"battery_pack":null}],"bike_numbers":["45040"],"bike_types":{"71":1},"place_type":"12","rack_locks":false},{"uid":47557858,"lat":50.76072,"lng":7.051012,"bike":true,"name":"BIKE 44640","address":null,"spot":false,"number":0,"booked_bikes":0,"bikes":1,"bikes_available_to_rent":1,"bike_racks":0,"free_racks":0,"special_racks":0,"free_special_racks":0,"maintenance":false,"terminal_type":"","bike_list":[{"number":"44640","bike_type":71,"lock_types":["frame_lock"],"active":true,"state":"ok","electric_lock":true,"boardcomputer":7551014679,"pedelec_battery":null,"battery_pack":null}],"bike_numbers":["44640"],"bike_types":{"71":1},"place_type":"12","rack_locks":false},{"uid":47558338,"lat":50.683156,"lng":7.175702,"bike":true,"name":"BIKE 44507","address":null,"spot":false,"number":0,"booked_bikes":0,"bikes":1,"bikes_available_to_rent":1,"bike_racks":0,"free_racks":0,"special_racks":0,"free_special_racks":0,"maintenance":false,"terminal_type":"","bike_list":[{"number":"44507","bike_type":71,"lock_types":["frame_lock"],"active":true,"state":"ok","electric_lock":true,"boardcomputer":7551057124,"pedelec_battery":null,"battery_pack":null}],"bike_numbers":["44507"],"bike_types":{"71":1},"place_type":"12","rack_locks":false},{"uid":47559699,"lat":50.71572,"lng":7.132638,"bike":true,"name":"BIKE 45351","address":null,"spot":false,"number":0,"booked_bikes":0,"bikes":1,"bikes_available_to_rent":1,"bike_racks":0,"free_racks":0,"special_racks":0,"free_special_racks":0,"maintenance":false,"terminal_type":"","bike_list":[{"number":"45351","bike_type":71,"lock_types":["frame_lock"],"active":true,"state":"ok","electric_lock":true,"boardcomputer":7551012756,"pedelec_battery":null,"battery_pack":null}],"bike_numbers":["45351"],"bike_types":{"71":1},"place_type":"12","rack_locks":false},{"uid":47561216,"lat":50.713702,"lng":7.170455,"bike":true,"name":"BIKE 45334","address":null,"spot":false,"number":0,"booked_bikes":0,"bikes":1,"bikes_available_to_rent":1,"bike_racks":0,"free_racks":0,"special_racks":0,"free_special_racks":0,"maintenance":false,"terminal_type":"","bike_list":[{"number":"45334","bike_type":71,"lock_types":["frame_lock"],"active":true,"state":"ok","electric_lock":true,"boardcomputer":7551058207,"pedelec_battery":null,"battery_pack":null}],"bike_numbers":["45334"],"bike_types":{"71":1},"place_type":"12","rack_locks":false},{"uid":47562459,"lat":50.75336,"lng":7.130101,"bike":true,"name":"BIKE 45190","address":null,"spot":false,"number":0,"booked_bikes":0,"bikes":1,"bikes_available_to_rent":1,"bike_racks":0,"free_racks":0,"special_racks":0,"free_special_racks":0,"maintenance":false,"terminal_type":"","bike_list":[{"number":"45190","bike_type":71,"lock_types":["frame_lock"],"active":true,"state":"ok","electric_lock":true,"boardcomputer":7551004387,"pedelec_battery":null,"battery_pack":null}],"bike_numbers":["45190"],"bike_types":{"71":1},"place_type":"12","rack_locks":false},{"uid":47563255,"lat":50.688413,"lng":7.15609,"bike":true,"name":"BIKE 44799","address":null,"spot":false,"number":0,"booked_bikes":0,"bikes":1,"bikes_available_to_rent":1,"bike_racks":0,"free_racks":0,"special_racks":0,"free_special_racks":0,"maintenance":false,"terminal_type":"","bike_list":[{"number":"44799","bike_type":71,"lock_types":["frame_lock"],"active":true,"state":"ok","electric_lock":true,"boardcomputer":7551057895,"pedelec_battery":null,"battery_pack":null}],"bike_numbers":["44799"],"bike_types":{"71":1},"place_type":"12","rack_locks":false},{"uid":47564514,"lat":50.709822,"lng":7.140215,"bike":true,"name":"BIKE 45048","address":null,"spot":false,"number":0,"booked_bikes":0,"bikes":1,"bikes_available_to_rent":1,"bike_racks":0,"free_racks":0,"special_racks":0,"free_special_racks":0,"maintenance":false,"terminal_type":"","bike_list":[{"number":"45048","bike_type":71,"lock_types":["frame_lock"],"active":true,"state":"ok","electric_lock":true,"boardcomputer":7551063950,"pedelec_battery":null,"battery_pack":null}],"bike_numbers":["45048"],"bike_types":{"71":1},"place_type":"12","rack_locks":false},{"uid":47567501,"lat":50.684138,"lng":7.172317,"bike":true,"name":"BIKE 45253","address":null,"spot":false,"number":0,"booked_bikes":0,"bikes":1,"bikes_available_to_rent":1,"bike_racks":0,"free_racks":0,"special_racks":0,"free_special_racks":0,"maintenance":false,"terminal_type":"","bike_list":[{"number":"45253","bike_type":71,"lock_types":["frame_lock"],"active":true,"state":"ok","electric_lock":true,"boardcomputer":7551014600,"pedelec_battery":null,"battery_pack":null}],"bike_numbers":["45253"],"bike_types":{"71":1},"place_type":"12","rack_locks":false},{"uid":47567513,"lat":50.684147,"lng":7.172394,"bike":true,"name":"BIKE 45067","address":null,"spot":false,"number":0,"booked_bikes":0,"bikes":1,"bikes_available_to_rent":1,"bike_racks":0,"free_racks":0,"special_racks":0,"free_special_racks":0,"maintenance":false,"terminal_type":"","bike_list":[{"number":"45067","bike_type":71,"lock_types":["frame_lock"],"active":true,"state":"ok","electric_lock":true,"boardcomputer":7551004821,"pedelec_battery":null,"battery_pack":null}],"bike_numbers":["45067"],"bike_types":{"71":1},"place_type":"12","rack_locks":false},{"uid":47567948,"lat":50.742884,"lng":7.119875,"bike":true,"name":"BIKE 45263","address":null,"spot":false,"number":0,"booked_bikes":0,"bikes":1,"bikes_available_to_rent":1,"bike_racks":0,"free_racks":0,"special_racks":0,"free_special_racks":0,"maintenance":false,"terminal_type":"","bike_list":[{"number":"45263","bike_type":71,"lock_types":["frame_lock"],"active":true,"state":"ok","electric_lock":true,"boardcomputer":7551057144,"pedelec_battery":null,"battery_pack":null}],"bike_numbers":["45263"],"bike_types":{"71":1},"place_type":"12","rack_locks":false},{"uid":47568306,"lat":50.727911,"lng":7.125063,"bike":true,"name":"BIKE 44525","address":null,"spot":false,"number":0,"booked_bikes":0,"bikes":1,"bikes_available_to_rent":1,"bike_racks":0,"free_racks":0,"special_racks":0,"free_special_racks":0,"maintenance":false,"terminal_type":"","bike_list":[{"number":"44525","bike_type":71,"lock_types":["frame_lock"],"active":true,"state":"ok","electric_lock":true,"boardcomputer":7551063406,"pedelec_battery":null,"battery_pack":null}],"bike_numbers":["44525"],"bike_types":{"71":1},"place_type":"12","rack_locks":false},{"uid":47568397,"lat":50.734182,"lng":7.106746,"bike":true,"name":"BIKE 44972","address":null,"spot":false,"number":0,"booked_bikes":0,"bikes":1,"bikes_available_to_rent":1,"bike_racks":0,"free_racks":0,"special_racks":0,"free_special_racks":0,"maintenance":false,"terminal_type":"","bike_list":[{"number":"44972","bike_type":71,"lock_types":["frame_lock"],"active":true,"state":"ok","electric_lock":true,"boardcomputer":7551063771,"pedelec_battery":null,"battery_pack":null}],"bike_numbers":["44972"],"bike_types":{"71":1},"place_type":"12","rack_locks":false},{"uid":47570395,"lat":50.715591,"lng":7.15643,"bike":true,"name":"BIKE 45129","address":null,"spot":false,"number":0,"booked_bikes":0,"bikes":1,"bikes_available_to_rent":1,"bike_racks":0,"free_racks":0,"special_racks":0,"free_special_racks":0,"maintenance":false,"terminal_type":"","bike_list":[{"number":"45129","bike_type":71,"lock_types":["frame_lock"],"active":true,"state":"ok","electric_lock":true,"boardcomputer":7551020642,"pedelec_battery":null,"battery_pack":null}],"bike_numbers":["45129"],"bike_types":{"71":1},"place_type":"12","rack_locks":false},{"uid":47570634,"lat":50.653738,"lng":7.193183,"bike":true,"name":"BIKE 44633","address":null,"spot":false,"number":0,"booked_bikes":0,"bikes":1,"bikes_available_to_rent":1,"bike_racks":0,"free_racks":0,"special_racks":0,"free_special_racks":0,"maintenance":false,"terminal_type":"","bike_list":[{"number":"44633","bike_type":71,"lock_types":["frame_lock"],"active":true,"state":"ok","electric_lock":true,"boardcomputer":7551004741,"pedelec_battery":null,"battery_pack":null}],"bike_numbers":["44633"],"bike_types":{"71":1},"place_type":"12","rack_locks":false},{"uid":47571616,"lat":50.675164,"lng":7.178762,"bike":true,"name":"BIKE 44732","address":null,"spot":false,"number":0,"booked_bikes":0,"bikes":1,"bikes_available_to_rent":1,"bike_racks":0,"free_racks":0,"special_racks":0,"free_special_racks":0,"maintenance":false,"terminal_type":"","bike_list":[{"number":"44732","bike_type":71,"lock_types":["frame_lock"],"active":true,"state":"ok","electric_lock":true,"boardcomputer":7551004823,"pedelec_battery":null,"battery_pack":null}],"bike_numbers":["44732"],"bike_types":{"71":1},"place_type":"12","rack_locks":false},{"uid":47572420,"lat":50.718569,"lng":7.041448,"bike":true,"name":"BIKE 45519","address":null,"spot":false,"number":0,"booked_bikes":0,"bikes":1,"bikes_available_to_rent":1,"bike_racks":0,"free_racks":0,"special_racks":0,"free_special_racks":0,"maintenance":false,"terminal_type":"","bike_list":[{"number":"45519","bike_type":71,"lock_types":["frame_lock"],"active":true,"state":"ok","electric_lock":true,"boardcomputer":7551018649,"pedelec_battery":null,"battery_pack":null}],"bike_numbers":["45519"],"bike_types":{"71":1},"place_type":"12","rack_locks":false},{"uid":47572753,"lat":50.715982,"lng":7.155373,"bike":true,"name":"BIKE 45524","address":null,"spot":false,"number":0,"booked_bikes":0,"bikes":1,"bikes_available_to_rent":1,"bike_racks":0,"free_racks":0,"special_racks":0,"free_special_racks":0,"maintenance":false,"terminal_type":"","bike_list":[{"number":"45524","bike_type":71,"lock_types":["frame_lock"],"active":true,"state":"ok","electric_lock":true,"boardcomputer":7551036583,"pedelec_battery":null,"battery_pack":null}],"bike_numbers":["45524"],"bike_types":{"71":1},"place_type":"12","rack_locks":false},{"uid":47572989,"lat":50.733227,"lng":7.106657,"bike":true,"name":"BIKE 44952","address":null,"spot":false,"number":0,"booked_bikes":0,"bikes":1,"bikes_available_to_rent":1,"bike_racks":0,"free_racks":0,"special_racks":0,"free_special_racks":0,"maintenance":false,"terminal_type":"","bike_list":[{"number":"44952","bike_type":71,"lock_types":["frame_lock"],"active":true,"state":"ok","electric_lock":true,"boardcomputer":7551007261,"pedelec_battery":null,"battery_pack":null}],"bike_numbers":["44952"],"bike_types":{"71":1},"place_type":"12","rack_locks":false},{"uid":47572999,"lat":50.733356,"lng":7.106529,"bike":true,"name":"BIKE 44921","address":null,"spot":false,"number":0,"booked_bikes":0,"bikes":1,"bikes_available_to_rent":1,"bike_racks":0,"free_racks":0,"special_racks":0,"free_special_racks":0,"maintenance":false,"terminal_type":"","bike_list":[{"number":"44921","bike_type":71,"lock_types":["frame_lock"],"active":true,"state":"ok","electric_lock":true,"boardcomputer":7551057126,"pedelec_battery":null,"battery_pack":null}],"bike_numbers":["44921"],"bike_types":{"71":1},"place_type":"12","rack_locks":false},{"uid":47573045,"lat":50.70992,"lng":7.034753,"bike":true,"name":"BIKE 44807","address":null,"spot":false,"number":0,"booked_bikes":0,"bikes":1,"bikes_available_to_rent":1,"bike_racks":0,"free_racks":0,"special_racks":0,"free_special_racks":0,"maintenance":false,"terminal_type":"","bike_list":[{"number":"44807","bike_type":71,"lock_types":["frame_lock"],"active":true,"state":"ok","electric_lock":true,"boardcomputer":7551012775,"pedelec_battery":null,"battery_pack":null}],"bike_numbers":["44807"],"bike_types":{"71":1},"place_type":"12","rack_locks":false},{"uid":47573097,"lat":50.667516,"lng":7.163813,"bike":true,"name":"BIKE 44970","address":null,"spot":false,"number":0,"booked_bikes":0,"bikes":1,"bikes_available_to_rent":1,"bike_racks":0,"free_racks":0,"special_racks":0,"free_special_racks":0,"maintenance":false,"terminal_type":"","bike_list":[{"number":"44970","bike_type":71,"lock_types":["frame_lock"],"active":true,"state":"ok","electric_lock":true,"boardcomputer":7551020558,"pedelec_battery":null,"battery_pack":null}],"bike_numbers":["44970"],"bike_types":{"71":1},"place_type":"12","rack_locks":false},{"uid":47573544,"lat":50.712524,"lng":7.161949,"bike":true,"name":"BIKE 44731","address":null,"spot":false,"number":0,"booked_bikes":0,"bikes":1,"bikes_available_to_rent":1,"bike_racks":0,"free_racks":0,"special_racks":0,"free_special_racks":0,"maintenance":false,"terminal_type":"","bike_list":[{"number":"44731","bike_type":71,"lock_types":["frame_lock"],"active":true,"state":"ok","electric_lock":true,"boardcomputer":7551025780,"pedelec_battery":null,"battery_pack":null}],"bike_numbers":["44731"],"bike_types":{"71":1},"place_type":"12","rack_locks":false},{"uid":47573710,"lat":50.72692,"lng":7.124092,"bike":true,"name":"BIKE 45232","address":null,"spot":false,"number":0,"booked_bikes":0,"bikes":1,"bikes_available_to_rent":1,"bike_racks":0,"free_racks":0,"special_racks":0,"free_special_racks":0,"maintenance":false,"terminal_type":"","bike_list":[{"number":"45232","bike_type":71,"lock_types":["frame_lock"],"active":true,"state":"ok","electric_lock":true,"boardcomputer":7551058030,"pedelec_battery":null,"battery_pack":null}],"bike_numbers":["45232"],"bike_types":{"71":1},"place_type":"12","rack_locks":false},{"uid":47574233,"lat":50.723209,"lng":7.083202,"bike":true,"name":"BIKE 45008","address":null,"spot":false,"number":0,"booked_bikes":0,"bikes":1,"bikes_available_to_rent":1,"bike_racks":0,"free_racks":0,"special_racks":0,"free_special_racks":0,"maintenance":false,"terminal_type":"","bike_list":[{"number":"45008","bike_type":71,"lock_types":["rack_adapter"],"active":true,"state":"ok","electric_lock":true,"boardcomputer":7551063562,"pedelec_battery":null,"battery_pack":null}],"bike_numbers":["45008"],"bike_types":{"71":1},"place_type":"12","rack_locks":false},{"uid":47575034,"lat":50.754484,"lng":7.147906,"bike":true,"name":"BIKE 44580","address":null,"spot":false,"number":0,"booked_bikes":0,"bikes":1,"bikes_available_to_rent":1,"bike_racks":0,"free_racks":0,"special_racks":0,"free_special_racks":0,"maintenance":false,"terminal_type":"","bike_list":[{"number":"44580","bike_type":71,"lock_types":["frame_lock"],"active":true,"state":"ok","electric_lock":true,"boardcomputer":7551018655,"pedelec_battery":null,"battery_pack":null}],"bike_numbers":["44580"],"bike_types":{"71":1},"place_type":"12","rack_locks":false},{"uid":47575108,"lat":50.721516,"lng":7.092066,"bike":true,"name":"BIKE 45404","address":null,"spot":false,"number":0,"booked_bikes":0,"bikes":1,"bikes_available_to_rent":1,"bike_racks":0,"free_racks":0,"special_racks":0,"free_special_racks":0,"maintenance":false,"terminal_type":"","bike_list":[{"number":"45404","bike_type":71,"lock_types":["frame_lock"],"active":true,"state":"ok","electric_lock":true,"boardcomputer":7551013327,"pedelec_battery":null,"battery_pack":null}],"bike_numbers":["45404"],"bike_types":{"71":1},"place_type":"12","rack_locks":false},{"uid":47575571,"lat":50.702409,"lng":7.138654,"bike":true,"name":"BIKE 45189","address":null,"spot":false,"number":0,"booked_bikes":0,"bikes":1,"bikes_available_to_rent":1,"bike_racks":0,"free_racks":0,"special_racks":0,"free_special_racks":0,"maintenance":false,"terminal_type":"","bike_list":[{"number":"45189","bike_type":71,"lock_types":["frame_lock"],"active":true,"state":"ok","electric_lock":true,"boardcomputer":7551013159,"pedelec_battery":null,"battery_pack":null}],"bike_numbers":["45189"],"bike_types":{"71":1},"place_type":"12","rack_locks":false},{"uid":47575927,"lat":50.726276,"lng":7.099967,"bike":true,"name":"BIKE 44933","address":null,"spot":false,"number":0,"booked_bikes":0,"bikes":1,"bikes_available_to_rent":1,"bike_racks":0,"free_racks":0,"special_racks":0,"free_special_racks":0,"maintenance":false,"terminal_type":"","bike_list":[{"number":"44933","bike_type":71,"lock_types":["frame_lock"],"active":true,"state":"ok","electric_lock":true,"boardcomputer":7551063530,"pedelec_battery":null,"battery_pack":null}],"bike_numbers":["44933"],"bike_types":{"71":1},"place_type":"12","rack_locks":false},{"uid":47576117,"lat":50.72512,"lng":7.065773,"bike":true,"name":"BIKE 44681","address":null,"spot":false,"number":0,"booked_bikes":0,"bikes":1,"bikes_available_to_rent":1,"bike_racks":0,"free_racks":0,"special_racks":0,"free_special_racks":0,"maintenance":false,"terminal_type":"","bike_list":[{"number":"44681","bike_type":71,"lock_types":["frame_lock"],"active":true,"state":"ok","electric_lock":true,"boardcomputer":7551056250,"pedelec_battery":null,"battery_pack":null}],"bike_numbers":["44681"],"bike_types":{"71":1},"place_type":"12","rack_locks":false},{"uid":47576514,"lat":50.745711,"lng":7.059893,"bike":true,"name":"BIKE 45386","address":null,"spot":false,"number":0,"booked_bikes":0,"bikes":1,"bikes_available_to_rent":1,"bike_racks":0,"free_racks":0,"special_racks":0,"free_special_racks":0,"maintenance":false,"terminal_type":"","bike_list":[{"number":"45386","bike_type":71,"lock_types":["frame_lock"],"active":true,"state":"ok","electric_lock":true,"boardcomputer":7551057070,"pedelec_battery":null,"battery_pack":null}],"bike_numbers":["45386"],"bike_types":{"71":1},"place_type":"12","rack_locks":false},{"uid":47576638,"lat":50.73684,"lng":7.088226,"bike":true,"name":"BIKE 44696","address":null,"spot":false,"number":0,"booked_bikes":0,"bikes":1,"bikes_available_to_rent":1,"bike_racks":0,"free_racks":0,"special_racks":0,"free_special_racks":0,"maintenance":false,"terminal_type":"","bike_list":[{"number":"44696","bike_type":71,"lock_types":["frame_lock"],"active":true,"state":"ok","electric_lock":true,"boardcomputer":7551063790,"pedelec_battery":null,"battery_pack":null}],"bike_numbers":["44696"],"bike_types":{"71":1},"place_type":"12","rack_locks":false},{"uid":47577620,"lat":50.716071,"lng":7.105216,"bike":true,"name":"BIKE 45291","address":null,"spot":false,"number":0,"booked_bikes":0,"bikes":1,"bikes_available_to_rent":1,"bike_racks":0,"free_racks":0,"special_racks":0,"free_special_racks":0,"maintenance":false,"terminal_type":"","bike_list":[{"number":"45291","bike_type":71,"lock_types":["frame_lock"],"active":true,"state":"ok","electric_lock":true,"boardcomputer":7551063369,"pedelec_battery":null,"battery_pack":null}],"bike_numbers":["45291"],"bike_types":{"71":1},"place_type":"12","rack_locks":false},{"uid":47578046,"lat":50.739702,"lng":7.127973,"bike":true,"name":"BIKE 44936","address":null,"spot":false,"number":0,"booked_bikes":0,"bikes":1,"bikes_available_to_rent":1,"bike_racks":0,"free_racks":0,"special_racks":0,"free_special_racks":0,"maintenance":false,"terminal_type":"","bike_list":[{"number":"44936","bike_type":71,"lock_types":["frame_lock"],"active":true,"state":"ok","electric_lock":true,"boardcomputer":7551013047,"pedelec_battery":null,"battery_pack":null}],"bike_numbers":["44936"],"bike_types":{"71":1},"place_type":"12","rack_locks":false},{"uid":47578089,"lat":50.725724,"lng":7.065244,"bike":true,"name":"BIKE 44901","address":null,"spot":false,"number":0,"booked_bikes":0,"bikes":1,"bikes_available_to_rent":1,"bike_racks":0,"free_racks":0,"special_racks":0,"free_special_racks":0,"maintenance":false,"terminal_type":"","bike_list":[{"number":"44901","bike_type":71,"lock_types":["frame_lock"],"active":true,"state":"ok","electric_lock":true,"boardcomputer":7551003669,"pedelec_battery":null,"battery_pack":null}],"bike_numbers":["44901"],"bike_types":{"71":1},"place_type":"12","rack_locks":false},{"uid":47578926,"lat":50.725987,"lng":7.080278,"bike":true,"name":"BIKE 44987","address":null,"spot":false,"number":0,"booked_bikes":0,"bikes":1,"bikes_available_to_rent":1,"bike_racks":0,"free_racks":0,"special_racks":0,"free_special_racks":0,"maintenance":false,"terminal_type":"","bike_list":[{"number":"44987","bike_type":71,"lock_types":["frame_lock"],"active":true,"state":"ok","electric_lock":true,"boardcomputer":7551056654,"pedelec_battery":null,"battery_pack":null}],"bike_numbers":["44987"],"bike_types":{"71":1},"place_type":"12","rack_locks":false},{"uid":47579030,"lat":50.753173,"lng":7.122259,"bike":true,"name":"BIKE 44566","address":null,"spot":false,"number":0,"booked_bikes":0,"bikes":1,"bikes_available_to_rent":1,"bike_racks":0,"free_racks":0,"special_racks":0,"free_special_racks":0,"maintenance":false,"terminal_type":"","bike_list":[{"number":"44566","bike_type":71,"lock_types":["frame_lock"],"active":true,"state":"ok","electric_lock":true,"boardcomputer":7551025493,"pedelec_battery":null,"battery_pack":null}],"bike_numbers":["44566"],"bike_types":{"71":1},"place_type":"12","rack_locks":false},{"uid":47579200,"lat":50.752809,"lng":7.117042,"bike":true,"name":"BIKE 44602","address":null,"spot":false,"number":0,"booked_bikes":0,"bikes":1,"bikes_available_to_rent":1,"bike_racks":0,"free_racks":0,"special_racks":0,"free_special_racks":0,"maintenance":false,"terminal_type":"","bike_list":[{"number":"44602","bike_type":71,"lock_types":["frame_lock"],"active":true,"state":"ok","electric_lock":true,"boardcomputer":7551058653,"pedelec_battery":null,"battery_pack":null}],"bike_numbers":["44602"],"bike_types":{"71":1},"place_type":"12","rack_locks":false},{"uid":47579304,"lat":50.722942,"lng":7.064996,"bike":true,"name":"BIKE 44910","address":null,"spot":false,"number":0,"booked_bikes":0,"bikes":1,"bikes_available_to_rent":1,"bike_racks":0,"free_racks":0,"special_racks":0,"free_special_racks":0,"maintenance":false,"terminal_type":"","bike_list":[{"number":"44910","bike_type":71,"lock_types":["frame_lock"],"active":true,"state":"ok","electric_lock":true,"boardcomputer":7551063532,"pedelec_battery":null,"battery_pack":null}],"bike_numbers":["44910"],"bike_types":{"71":1},"place_type":"12","rack_locks":false},{"uid":47579518,"lat":50.709093,"lng":7.105584,"bike":true,"name":"BIKE 44889","address":null,"spot":false,"number":0,"booked_bikes":0,"bikes":1,"bikes_available_to_rent":1,"bike_racks":0,"free_racks":0,"special_racks":0,"free_special_racks":0,"maintenance":false,"terminal_type":"","bike_list":[{"number":"44889","bike_type":71,"lock_types":["frame_lock"],"active":true,"state":"ok","electric_lock":true,"boardcomputer":7551025754,"pedelec_battery":null,"battery_pack":null}],"bike_numbers":["44889"],"bike_types":{"71":1},"place_type":"12","rack_locks":false},{"uid":47580053,"lat":50.758333,"lng":7.057955,"bike":true,"name":"BIKE 44708","address":null,"spot":false,"number":0,"booked_bikes":0,"bikes":1,"bikes_available_to_rent":1,"bike_racks":0,"free_racks":0,"special_racks":0,"free_special_racks":0,"maintenance":false,"terminal_type":"","bike_list":[{"number":"44708","bike_type":71,"lock_types":["frame_lock"],"active":true,"state":"ok","electric_lock":true,"boardcomputer":7551012770,"pedelec_battery":null,"battery_pack":null}],"bike_numbers":["44708"],"bike_types":{"71":1},"place_type":"12","rack_locks":false},{"uid":47580299,"lat":50.732529,"lng":7.085208,"bike":true,"name":"BIKE 45185","address":null,"spot":false,"number":0,"booked_bikes":0,"bikes":1,"bikes_available_to_rent":1,"bike_racks":0,"free_racks":0,"special_racks":0,"free_special_racks":0,"maintenance":false,"terminal_type":"","bike_list":[{"number":"45185","bike_type":71,"lock_types":["frame_lock"],"active":true,"state":"ok","electric_lock":true,"boardcomputer":7551061560,"pedelec_battery":null,"battery_pack":null}],"bike_numbers":["45185"],"bike_types":{"71":1},"place_type":"12","rack_locks":false},{"uid":47580514,"lat":50.754116,"lng":7.071443,"bike":true,"name":"BIKE 45264","address":null,"spot":false,"number":0,"booked_bikes":0,"bikes":1,"bikes_available_to_rent":1,"bike_racks":0,"free_racks":0,"special_racks":0,"free_special_racks":0,"maintenance":false,"terminal_type":"","bike_list":[{"number":"45264","bike_type":71,"lock_types":["frame_lock"],"active":true,"state":"ok","electric_lock":true,"boardcomputer":7551014678,"pedelec_battery":null,"battery_pack":null}],"bike_numbers":["45264"],"bike_types":{"71":1},"place_type":"12","rack_locks":false},{"uid":47580534,"lat":50.75092,"lng":7.066397,"bike":true,"name":"BIKE 44628","address":null,"spot":false,"number":0,"booked_bikes":0,"bikes":1,"bikes_available_to_rent":1,"bike_racks":0,"free_racks":0,"special_racks":0,"free_special_racks":0,"maintenance":false,"terminal_type":"","bike_list":[{"number":"44628","bike_type":71,"lock_types":["frame_lock"],"active":true,"state":"ok","electric_lock":true,"boardcomputer":7551017919,"pedelec_battery":null,"battery_pack":null}],"bike_numbers":["44628"],"bike_types":{"71":1},"place_type":"12","rack_locks":false},{"uid":47580600,"lat":50.683596,"lng":7.150251,"bike":true,"name":"BIKE 45179","address":null,"spot":false,"number":0,"booked_bikes":0,"bikes":1,"bikes_available_to_rent":1,"bike_racks":0,"free_racks":0,"special_racks":0,"free_special_racks":0,"maintenance":false,"terminal_type":"","bike_list":[{"number":"45179","bike_type":71,"lock_types":["frame_lock"],"active":true,"state":"ok","electric_lock":true,"boardcomputer":7551013411,"pedelec_battery":null,"battery_pack":null}],"bike_numbers":["45179"],"bike_types":{"71":1},"place_type":"12","rack_locks":false},{"uid":47580633,"lat":50.673089,"lng":7.186302,"bike":true,"name":"BIKE 45394","address":null,"spot":false,"number":0,"booked_bikes":0,"bikes":1,"bikes_available_to_rent":1,"bike_racks":0,"free_racks":0,"special_racks":0,"free_special_racks":0,"maintenance":false,"terminal_type":"","bike_list":[{"number":"45394","bike_type":71,"lock_types":["frame_lock"],"active":true,"state":"ok","electric_lock":true,"boardcomputer":7551057120,"pedelec_battery":null,"battery_pack":null}],"bike_numbers":["45394"],"bike_types":{"71":1},"place_type":"12","rack_locks":false},{"uid":47581346,"lat":50.667391,"lng":7.187897,"bike":true,"name":"BIKE 45265","address":null,"spot":false,"number":0,"booked_bikes":0,"bikes":1,"bikes_available_to_rent":1,"bike_racks":0,"free_racks":0,"special_racks":0,"free_special_racks":0,"maintenance":false,"terminal_type":"","bike_list":[{"number":"45265","bike_type":71,"lock_types":["frame_lock"],"active":true,"state":"ok","electric_lock":true,"boardcomputer":7551004659,"pedelec_battery":null,"battery_pack":null}],"bike_numbers":["45265"],"bike_types":{"71":1},"place_type":"12","rack_locks":false},{"uid":47581413,"lat":50.692671,"lng":7.152013,"bike":true,"name":"BIKE 45502","address":null,"spot":false,"number":0,"booked_bikes":0,"bikes":1,"bikes_available_to_rent":1,"bike_racks":0,"free_racks":0,"special_racks":0,"free_special_racks":0,"maintenance":false,"terminal_type":"","bike_list":[{"number":"45502","bike_type":71,"lock_types":["frame_lock"],"active":true,"state":"ok","electric_lock":true,"boardcomputer":7551004515,"pedelec_battery":null,"battery_pack":null}],"bike_numbers":["45502"],"bike_types":{"71":1},"place_type":"12","rack_locks":false},{"uid":47581520,"lat":50.702378,"lng":7.152042,"bike":true,"name":"BIKE 44865","address":null,"spot":false,"number":0,"booked_bikes":0,"bikes":1,"bikes_available_to_rent":1,"bike_racks":0,"free_racks":0,"special_racks":0,"free_special_racks":0,"maintenance":false,"terminal_type":"","bike_list":[{"number":"44865","bike_type":71,"lock_types":["frame_lock"],"active":true,"state":"ok","electric_lock":true,"boardcomputer":7551012703,"pedelec_battery":null,"battery_pack":null}],"bike_numbers":["44865"],"bike_types":{"71":1},"place_type":"12","rack_locks":false},{"uid":47581554,"lat":50.703427,"lng":7.159348,"bike":true,"name":"BIKE 44678","address":null,"spot":false,"number":0,"booked_bikes":0,"bikes":1,"bikes_available_to_rent":1,"bike_racks":0,"free_racks":0,"special_racks":0,"free_special_racks":0,"maintenance":false,"terminal_type":"","bike_list":[{"number":"44678","bike_type":71,"lock_types":["frame_lock"],"active":true,"state":"ok","electric_lock":true,"boardcomputer":7551058245,"pedelec_battery":null,"battery_pack":null}],"bike_numbers":["44678"],"bike_types":{"71":1},"place_type":"12","rack_locks":false},{"uid":47581581,"lat":50.745151,"lng":7.132287,"bike":true,"name":"BIKE 44810","address":null,"spot":false,"number":0,"booked_bikes":0,"bikes":1,"bikes_available_to_rent":1,"bike_racks":0,"free_racks":0,"special_racks":0,"free_special_racks":0,"maintenance":false,"terminal_type":"","bike_list":[{"number":"44810","bike_type":71,"lock_types":["frame_lock"],"active":true,"state":"ok","electric_lock":true,"boardcomputer":7551063787,"pedelec_battery":null,"battery_pack":null}],"bike_numbers":["44810"],"bike_types":{"71":1},"place_type":"12","rack_locks":false},{"uid":47581684,"lat":50.662542,"lng":7.17388,"bike":true,"name":"BIKE 44605","address":null,"spot":false,"number":0,"booked_bikes":0,"bikes":1,"bikes_available_to_rent":1,"bike_racks":0,"free_racks":0,"special_racks":0,"free_special_racks":0,"maintenance":false,"terminal_type":"","bike_list":[{"number":"44605","bike_type":71,"lock_types":["frame_lock"],"active":true,"state":"ok","electric_lock":true,"boardcomputer":7551063931,"pedelec_battery":null,"battery_pack":null}],"bike_numbers":["44605"],"bike_types":{"71":1},"place_type":"12","rack_locks":false},{"uid":47582452,"lat":50.744653,"lng":7.078955,"bike":true,"name":"BIKE 44766","address":null,"spot":false,"number":0,"booked_bikes":0,"bikes":1,"bikes_available_to_rent":1,"bike_racks":0,"free_racks":0,"special_racks":0,"free_special_racks":0,"maintenance":false,"terminal_type":"","bike_list":[{"number":"44766","bike_type":71,"lock_types":["frame_lock"],"active":true,"state":"ok","electric_lock":true,"boardcomputer":7551003611,"pedelec_battery":null,"battery_pack":null}],"bike_numbers":["44766"],"bike_types":{"71":1},"place_type":"12","rack_locks":false},{"uid":47583093,"lat":50.744173,"lng":7.135375,"bike":true,"name":"BIKE 44783","address":null,"spot":false,"number":0,"booked_bikes":0,"bikes":1,"bikes_available_to_rent":1,"bike_racks":0,"free_racks":0,"special_racks":0,"free_special_racks":0,"maintenance":false,"terminal_type":"","bike_list":[{"number":"44783","bike_type":71,"lock_types":["frame_lock"],"active":true,"state":"ok","electric_lock":true,"boardcomputer":7551004723,"pedelec_battery":null,"battery_pack":null}],"bike_numbers":["44783"],"bike_types":{"71":1},"place_type":"12","rack_locks":false},{"uid":47583157,"lat":50.747524,"lng":7.119687,"bike":true,"name":"BIKE 45388","address":null,"spot":false,"number":0,"booked_bikes":0,"bikes":1,"bikes_available_to_rent":1,"bike_racks":0,"free_racks":0,"special_racks":0,"free_special_racks":0,"maintenance":false,"terminal_type":"","bike_list":[{"number":"45388","bike_type":71,"lock_types":["frame_lock"],"active":true,"state":"ok","electric_lock":true,"boardcomputer":7551006933,"pedelec_battery":null,"battery_pack":null}],"bike_numbers":["45388"],"bike_types":{"71":1},"place_type":"12","rack_locks":false},{"uid":47583201,"lat":50.726724,"lng":7.124647,"bike":true,"name":"BIKE 45284","address":null,"spot":false,"number":0,"booked_bikes":0,"bikes":1,"bikes_available_to_rent":1,"bike_racks":0,"free_racks":0,"special_racks":0,"free_special_racks":0,"maintenance":false,"terminal_type":"","bike_list":[{"number":"45284","bike_type":71,"lock_types":["frame_lock"],"active":true,"state":"ok","electric_lock":true,"boardcomputer":7551059385,"pedelec_battery":null,"battery_pack":null}],"bike_numbers":["45284"],"bike_types":{"71":1},"place_type":"12","rack_locks":false},{"uid":47583344,"lat":50.732729,"lng":7.14386,"bike":true,"name":"BIKE 45077","address":null,"spot":false,"number":0,"booked_bikes":0,"bikes":1,"bikes_available_to_rent":1,"bike_racks":0,"free_racks":0,"special_racks":0,"free_special_racks":0,"maintenance":false,"terminal_type":"","bike_list":[{"number":"45077","bike_type":71,"lock_types":["frame_lock"],"active":true,"state":"ok","electric_lock":true,"boardcomputer":7551003176,"pedelec_battery":null,"battery_pack":null}],"bike_numbers":["45077"],"bike_types":{"71":1},"place_type":"12","rack_locks":false},{"uid":47583586,"lat":50.7104,"lng":7.171397,"bike":true,"name":"BIKE 45241","address":null,"spot":false,"number":0,"booked_bikes":0,"bikes":1,"bikes_available_to_rent":1,"bike_racks":0,"free_racks":0,"special_racks":0,"free_special_racks":0,"maintenance":false,"terminal_type":"","bike_list":[{"number":"45241","bike_type":71,"lock_types":["frame_lock"],"active":true,"state":"ok","electric_lock":true,"boardcomputer":7551004752,"pedelec_battery":null,"battery_pack":null}],"bike_numbers":["45241"],"bike_types":{"71":1},"place_type":"12","rack_locks":false},{"uid":47583961,"lat":50.731196,"lng":7.125955,"bike":true,"name":"BIKE 44610","address":null,"spot":false,"number":0,"booked_bikes":0,"bikes":1,"bikes_available_to_rent":1,"bike_racks":0,"free_racks":0,"special_racks":0,"free_special_racks":0,"maintenance":false,"terminal_type":"","bike_list":[{"number":"44610","bike_type":71,"lock_types":["frame_lock"],"active":true,"state":"ok","electric_lock":true,"boardcomputer":7551018621,"pedelec_battery":null,"battery_pack":null}],"bike_numbers":["44610"],"bike_types":{"71":1},"place_type":"12","rack_locks":false},{"uid":47584399,"lat":50.752018,"lng":7.123227,"bike":true,"name":"BIKE 45089","address":null,"spot":false,"number":0,"booked_bikes":0,"bikes":1,"bikes_available_to_rent":1,"bike_racks":0,"free_racks":0,"special_racks":0,"free_special_racks":0,"maintenance":false,"terminal_type":"","bike_list":[{"number":"45089","bike_type":71,"lock_types":["frame_lock"],"active":true,"state":"ok","electric_lock":true,"boardcomputer":7551036815,"pedelec_battery":null,"battery_pack":null}],"bike_numbers":["45089"],"bike_types":{"71":1},"place_type":"12","rack_locks":false},{"uid":47585022,"lat":50.693773,"lng":7.158928,"bike":true,"name":"BIKE 45389","address":null,"spot":false,"number":0,"booked_bikes":0,"bikes":1,"bikes_available_to_rent":1,"bike_racks":0,"free_racks":0,"special_racks":0,"free_special_racks":0,"maintenance":false,"terminal_type":"","bike_list":[{"number":"45389","bike_type":71,"lock_types":["frame_lock"],"active":true,"state":"ok","electric_lock":true,"boardcomputer":7551057080,"pedelec_battery":null,"battery_pack":null}],"bike_numbers":["45389"],"bike_types":{"71":1},"place_type":"12","rack_locks":false},{"uid":47585237,"lat":50.742138,"lng":7.11528,"bike":true,"name":"BIKE 45456","address":null,"spot":false,"number":0,"booked_bikes":0,"bikes":1,"bikes_available_to_rent":1,"bike_racks":0,"free_racks":0,"special_racks":0,"free_special_racks":0,"maintenance":false,"terminal_type":"","bike_list":[{"number":"45456","bike_type":71,"lock_types":["frame_lock"],"active":true,"state":"ok","electric_lock":true,"boardcomputer":7551017849,"pedelec_battery":null,"battery_pack":null}],"bike_numbers":["45456"],"bike_types":{"71":1},"place_type":"12","rack_locks":false},{"uid":47585638,"lat":50.708258,"lng":7.132958,"bike":true,"name":"BIKE 44785","address":null,"spot":false,"number":0,"booked_bikes":0,"bikes":1,"bikes_available_to_rent":1,"bike_racks":0,"free_racks":0,"special_racks":0,"free_special_racks":0,"maintenance":false,"terminal_type":"","bike_list":[{"number":"44785","bike_type":71,"lock_types":["frame_lock"],"active":true,"state":"ok","electric_lock":true,"boardcomputer":7551056791,"pedelec_battery":null,"battery_pack":null}],"bike_numbers":["44785"],"bike_types":{"71":1},"place_type":"12","rack_locks":false},{"uid":47585824,"lat":50.716107,"lng":7.068603,"bike":true,"name":"BIKE 44652","address":null,"spot":false,"number":0,"booked_bikes":0,"bikes":1,"bikes_available_to_rent":1,"bike_racks":0,"free_racks":0,"special_racks":0,"free_special_racks":0,"maintenance":false,"terminal_type":"","bike_list":[{"number":"44652","bike_type":71,"lock_types":["frame_lock"],"active":true,"state":"ok","electric_lock":true,"boardcomputer":7551056974,"pedelec_battery":null,"battery_pack":null}],"bike_numbers":["44652"],"bike_types":{"71":1},"place_type":"12","rack_locks":false},{"uid":47586665,"lat":50.683262,"lng":7.15256,"bike":true,"name":"BIKE 44833","address":null,"spot":false,"number":0,"booked_bikes":0,"bikes":1,"bikes_available_to_rent":1,"bike_racks":0,"free_racks":0,"special_racks":0,"free_special_racks":0,"maintenance":false,"terminal_type":"","bike_list":[{"number":"44833","bike_type":71,"lock_types":["frame_lock"],"active":true,"state":"ok","electric_lock":true,"boardcomputer":7551056650,"pedelec_battery":null,"battery_pack":null}],"bike_numbers":["44833"],"bike_types":{"71":1},"place_type":"12","rack_locks":false},{"uid":47586745,"lat":50.681511,"lng":7.068024,"bike":true,"name":"BIKE 44937","address":null,"spot":false,"number":0,"booked_bikes":0,"bikes":1,"bikes_available_to_rent":1,"bike_racks":0,"free_racks":0,"special_racks":0,"free_special_racks":0,"maintenance":false,"terminal_type":"","bike_list":[{"number":"44937","bike_type":71,"lock_types":["frame_lock"],"active":true,"state":"ok","electric_lock":true,"boardcomputer":7551012279,"pedelec_battery":null,"battery_pack":null}],"bike_numbers":["44937"],"bike_types":{"71":1},"place_type":"12","rack_locks":false},{"uid":47586813,"lat":50.726489,"lng":7.033709,"bike":true,"name":"BIKE 44711","address":null,"spot":false,"number":0,"booked_bikes":0,"bikes":1,"bikes_available_to_rent":1,"bike_racks":0,"free_racks":0,"special_racks":0,"free_special_racks":0,"maintenance":false,"terminal_type":"","bike_list":[{"number":"44711","bike_type":71,"lock_types":["frame_lock"],"active":true,"state":"ok","electric_lock":true,"boardcomputer":7551012430,"pedelec_battery":null,"battery_pack":null}],"bike_numbers":["44711"],"bike_types":{"71":1},"place_type":"12","rack_locks":false},