{"countries":[{"lat":50.7252,"lng":7.13768,"zoom":11,"name":"Bonn nextbike","hotline":"00493069205046","domain":"bf","language":"de","email":"kundenservice@nextbike.de","timezone":"Europe/Berlin","currency":"EUR","country_calling_code":"+49","system_operator_address":"nextbike GmbH, Erich-Zeigner Allee 69-73, 04229 Leipzig","country":"DE","country_name":"Germany","terms":"https://www.nextbike.de/de/agb/#202006","policy":"https://www.nextbike.de/datenschutz/","website":"https://www.nextbike.de/de/bonn/","show_bike_types":false,"show_bike_type_groups":false,"show_free_racks":false,"booked_bikes":2,"set_point_bikes":1021,"available_bikes":112,"capped_available_bikes":false,"no_registration":false,"pricing":"https://www.nextbike.de/de/bonn/preise/","cities":[{"uid":547,"lat":50.7367,"lng":7.09541,"zoom":12,"maps_icon":"","alias":"bonn","break":false,"name":"Bonn","num_places":192,"refresh_rate":"10120","bounds":{"south_west":{"lat":50.6549,"lng":7.0339},"north_east":{"lat":50.7807,"lng":7.1959}},"booked_bikes":2,"set_point_bikes":1021,"available_bikes":112,"return_to_official_only":true,"bike_types":{"14":1,"71":213,"150":3,"undefined":2},"website":"https://www.nextbike.de/de/bonn/","places":[{"uid":10044279,"lat":50.739211,"lng":7.126598,"bike":false,"name":"Bahnhof Beuel","address":null,"spot":true,"number":4741,"booked_bikes":0,"bikes":0,"bikes_available_to_rent":0,"bike_racks":0,"free_racks":0,"special_racks":0,"free_special_racks":0,"maintenance":false,"terminal_type":"free","bike_list":[],"bike_numbers":[],"bike_types":{},"place_type":"0","rack_locks":false},{"uid":10044287,"lat":50.736768,"lng":7.080957,"bike":false,"name":"Haltepunkt Bonn-West","address":null,"spot":true,"number":4742,"booked_bikes":0,"bikes":0,"bikes_available_to_rent":0,"bike_racks":0,"free_racks":0,"special_racks":0,"free_special_racks":0,"maintenance":false,"terminal_type":"free","bike_list":[],"bike_numbers":[],"bike_types":{},"place_type":"0","rack_locks":false},{"uid":10044296,"lat":50.71461,"lng":7.160082,"bike":false,"name":"Bahnhof Oberkassel","address":null,"spot":true,"number":4743,"booked_bikes":0,"bikes":0,"bikes_available_to_rent":0,"bike_racks":0,"free_racks":0,"special_racks":0,"free_special_racks":0,"maintenance":false,"terminal_type":"free","bike_list":[],"bike_numbers":[],"bike_types":{},"place_type":"0","rack_locks":false},{"uid":10044315,"lat":50.71788,"lng":7.12546,"bike":false,"name":"Bundeshaus","address":null,"spot":true,"number":4744,"booked_bikes":0,"bikes":0,"bikes_available_to_rent":0,"bike_racks":0,"free_racks":0,"special_racks":0,"free_special_racks":0,"maintenance":false,"terminal_type":"free","bike_list":[],"bike_numbers":[],"bike_types":{},"place_type":"0","rack_locks":false},{"uid":10044322,"lat":50.71757,"lng":7.090974,"bike":false,"name":"St. Marien Hospital","address":null,"spot":true,"number":4745,"booked_bikes":0,"bikes":0,"bikes_available_to_rent":0,"bike_racks":0,"free_racks":0,"special_racks":0,"free_special_racks":0,"maintenance":false,"terminal_type":"free","bike_list":[],"bike_numbers":[],"bike_types":{},"place_type":"0","rack_locks":false},{"uid":10044348,"lat":50.702784,"lng":7.10029,"bike":false,"name":"UKBonn","address":null,"spot":true,"number":4748,"booked_bikes":0,"bikes":0,"bikes_available_to_rent":0,"bike_racks":0,"free_racks":0,"special_racks":0,"free_special_racks":0,"maintenance":true,"terminal_type":"free","bike_list":[],"bike_numbers":[],"bike_types":{},"place_type":"0","rack_locks":false},{"uid":10044359,"lat":50.734919,"lng":7.102499,"bike":false,"name":"Altes Rathaus","address":null,"spot":true,"number":4749,"booked_bikes":0,"bikes":0,"bikes_available_to_rent":0,"bike_racks":0,"free_racks":0,"special_racks":0,"free_special_racks":0,"maintenance":false,"terminal_type":"free","bike_list":[],"bike_numbers":[],"bike_types":{},"place_type":"0","rack_locks":false},{"uid":10044374,"lat":50.725962,"lng":7.094151,"bike":false,"name":"Poppelsdorfer Schloss","address":null,"spot":true,"number":4750,"booked_bikes":0,"bikes":0,"bikes_available_to_rent":0,"bike_racks":0,"free_racks":0,"special_racks":0,"free_special_racks":0,"maintenance":false,"terminal_type":"free","bike_list":[],"bike_numbers":[],"bike_types":{},"place_type":"0","rack_locks":false},{"uid":10044445,"lat":50.736217,"lng":7.094604,"bike":false,"name":"Alter Friedhof","address":null,"spot":true,"number":4752,"booked_bikes":0,"bikes":0,"bikes_available_to_rent":0,"bike_racks":0,"free_racks":0,"special_racks":0,"free_special_racks":0,"maintenance":false,"terminal_type":"free","bike_list":[],"bike_numbers":[],"bike_types":{},"place_type":"0","rack_locks":false},{"uid":10044458,"lat":50.73433,"lng":7.097629,"bike":false,"name":"Bonn Information","address":null,"spot":true,"number":4753,"booked_bikes":0,"bikes":0,"bikes_available_to_rent":0,"bike_racks":0,"free_racks":0,"special_racks":0,"free_special_racks":0,"maintenance":false,"terminal_type":"free","bike_list":[],"bike_numbers":[],"bike_types":{},"place_type":"0","rack_locks":false},{"uid":10044463,"lat":50.717595,"lng":7.119956,"bike":false,"name":"Haus der Geschichte","address":null,"spot":true,"number":4754,"booked_bikes":0,"bikes":0,"bikes_available_to_rent":0,"bike_racks":0,"free_racks":0,"special_racks":0,"free_special_racks":0,"maintenance":false,"terminal_type":"free","bike_list":[],"bike_numbers":[],"bike_types":{},"place_type":"0","rack_locks":false},{"uid":10044492,"lat":50.740346,"lng":7.091728,"bike":false,"name":"Frauen Museum","address":null,"spot":true,"number":4757,"booked_bikes":0,"bikes":0,"bikes_available_to_rent":0,"bike_racks":0,"free_racks":0,"special_racks":0,"free_special_racks":0,"maintenance":false,"terminal_type":"free","bike_list":[],"bike_numbers":[],"bike_types":{},"place_type":"0","rack_locks":false},{"uid":10044499,"lat":50.736858,"lng":7.105968,"bike":false,"name":"Theater Bonn","address":null,"spot":true,"number":4759,"booked_bikes":0,"bikes":0,"bikes_available_to_rent":0,"bike_racks":0,"free_racks":0,"special_racks":0,"free_special_racks":0,"maintenance":true,"terminal_type":"free","bike_list":[],"bike_numbers":[],"bike_types":{},"place_type":"0","rack_locks":false},{"uid":10044510,"lat":50.735092,"lng":7.108273,"bike":false,"name":"Schiffsanlegestelle „Alter Zoll“","address":null,"spot":true,"number":4760,"booked_bikes":0,"bikes":0,"bikes_available_to_rent":0,"bike_racks":0,"free_racks":0,"special_racks":0,"free_special_racks":0,"maintenance":false,"terminal_type":"free","bike_list":[],"bike_numbers":[],"bike_types":{},"place_type":"0","rack_locks":false},{"uid":10044525,"lat":50.717948,"lng":7.154122,"bike":false,"name":"Bonner Bogen","address":null,"spot":true,"number":4761,"booked_bikes":0,"bikes":0,"bikes_available_to_rent":0,"bike_racks":0,"free_racks":0,"special_racks":0,"free_special_racks":0,"maintenance":false,"terminal_type":"free","bike_list":[],"bike_numbers":[],"bike_types":{},"place_type":"0","rack_locks":false},{"uid":10044530,"lat":50.718658,"lng":7.129261,"bike":false,"name":"Schiffsanlegestelle Bundeshaus","address":null,"spot":true,"number":4762,"booked_bikes":0,"bikes":0,"bikes_available_to_rent":0,"bike_racks":0,"free_racks":0,"special_racks":0,"free_special_racks":0,"maintenance":false,"terminal_type":"free","bike_list":[],"bike_numbers":[],"bike_types":{},"place_type":"0","rack_locks":false},{"uid":10044540,"lat":50.730092,"lng":7.108278,"bike":false,"name":"Juridicum","address":null,"spot":true,"number":4764,"booked_bikes":0,"bikes":0,"bikes_available_to_rent":0,"bike_racks":0,"free_racks":0,"special_racks":0,"free_special_racks":0,"maintenance":false,"terminal_type":"free","bike_list":[],"bike_numbers":[],"bike_types":{},"place_type":"0","rack_locks":false},{"uid":10044582,"lat":50.728481,"lng":7.08527,"bike":false,"name":"Campus Poppelsdorf I","address":null,"spot":true,"number":4765,"booked_bikes":0,"bikes":0,"bikes_available_to_rent":0,"bike_racks":0,"free_racks":0,"special_racks":0,"free_special_racks":0,"maintenance":false,"terminal_type":"free","bike_list":[],"bike_numbers":[],"bike_types":{},"place_type":"0","rack_locks":false},{"uid":10044627,"lat":50.710586,"lng":7.126873,"bike":false,"name":"Ollenhauerstraße","address":null,"spot":true,"number":4769,"booked_bikes":0,"bikes":0,"bikes_available_to_rent":0,"bike_racks":0,"free_racks":0,"special_racks":0,"free_special_racks":0,"maintenance":false,"terminal_type":"free","bike_list":[],"bike_numbers":[],"bike_types":{},"place_type":"0","rack_locks":false},{"uid":10044650,"lat":50.721643,"lng":7.143157,"bike":false,"name":"T-Mobile, Landgrabenweg","address":null,"spot":true,"number":4772,"booked_bikes":0,"bikes":0,"bikes_available_to_rent":0,"bike_racks":0,"free_racks":0,"special_racks":0,"free_special_racks":0,"maintenance":false,"terminal_type":"free","bike_list":[],"bike_numbers":[],"bike_types":{},"place_type":"0","rack_locks":false},{"uid":10044658,"lat":50.749956,"lng":7.175042,"bike":false,"name":"Kohlkauer Platz","address":null,"spot":true,"number":4773,"booked_bikes":0,"bikes":0,"bikes_available_to_rent":0,"bike_racks":0,"free_racks":0,"special_racks":0,"free_special_racks":0,"maintenance":false,"terminal_type":"free","bike_list":[],"bike_numbers":[],"bike_types":{},"place_type":"0","rack_locks":false},{"uid":10044664,"lat":50.73656,"lng":7.117344,"bike":false,"name":"Beuel Krankenhaus","address":null,"spot":true,"number":4774,"booked_bikes":0,"bikes":0,"bikes_available_to_rent":0,"bike_racks":0,"free_racks":0,"special_racks":0,"free_special_racks":0,"maintenance":false,"terminal_type":"free","bike_list":[],"bike_numbers":[],"bike_types":{},"place_type":"0","rack_locks":false},{"uid":10044675,"lat":50.697096,"lng":7.141677,"bike":false,"name":"Hochkreuz","address":null,"spot":true,"number":4775,"booked_bikes":0,"bikes":1,"bikes_available_to_rent":1,"bike_racks":0,"free_racks":0,"special_racks":0,"free_special_racks":0,"maintenance":false,"terminal_type":"free","bike_list":[{"number":"45188","bike_type":71,"lock_types":["frame_lock"],"active":true,"state":"ok","electric_lock":true,"boardcomputer":7551058210,"pedelec_battery":null,"battery_pack":null}],"bike_numbers":["45188"],"bike_types":{"71":1},"place_type":"0","rack_locks":false},{"uid":10044687,"lat":50.725994,"lng":7.111225,"bike":false,"name":"Bundesrechnungshof","address":null,"spot":true,"number":4776,"booked_bikes":0,"bikes":0,"bikes_available_to_rent":0,"bike_racks":0,"free_racks":0,"special_racks":0,"free_special_racks":0,"maintenance":false,"terminal_type":"free","bike_list":[],"bike_numbers":[],"bike_types":{},"place_type":"0","rack_locks":false},{"uid":10044713,"lat":50.721355,"lng":7.087861,"bike":false,"name":"Poppelsdorfer Platz","address":null,"spot":true,"number":4777,"booked_bikes":0,"bikes":0,"bikes_available_to_rent":0,"bike_racks":0,"free_racks":0,"special_racks":0,"free_special_racks":0,"maintenance":false,"terminal_type":"free","bike_list":[],"bike_numbers":[],"bike_types":{},"place_type":"0","rack_locks":false},{"uid":10044733,"lat":50.727019,"lng":7.081236,"bike":false,"name":"Wiesenweg","address":null,"spot":true,"number":4781,"booked_bikes":0,"bikes":0,"bikes_available_to_rent":0,"bike_racks":0,"free_racks":0,"special_racks":0,"free_special_racks":0,"maintenance":false,"terminal_type":"free","bike_list":[],"bike_numbers":[],"bike_types":{},"place_type":"0","rack_locks":false},{"uid":10044742,"lat":50.722049,"lng":7.155165,"bike":false,"name":"Ramersdorf","address":null,"spot":true,"number":4782,"booked_bikes":0,"bikes":0,"bikes_available_to_rent":0,"bike_racks":0,"free_racks":0,"special_racks":0,"free_special_racks":0,"maintenance":false,"terminal_type":"free","bike_list":[],"bike_numbers":[],"bike_types":{},"place_type":"0","rack_locks":false},{"uid":10044761,"lat":50.735673,"lng":7.096814,"bike":false,"name":"Friedensplatz/Budapester Straße","address":null,"spot":true,"number":4785,"booked_bikes":0,"bikes":0,"bikes_available_to_rent":0,"bike_racks":0,"free_racks":0,"special_racks":0,"free_special_racks":0,"maintenance":false,"terminal_type":"free","bike_list":[],"bike_numbers":[],"bike_types":{},"place_type":"0","rack_locks":false},{"uid":10044769,"lat":50.71464,"lng":7.118325,"bike":false,"name":"UN-Campus","address":null,"spot":true,"number":4786,"booked_bikes":0,"bikes":0,"bikes_available_to_rent":0,"bike_racks":0,"free_racks":0,"special_racks":0,"free_special_racks":0,"maintenance":false,"terminal_type":"free","bike_list":[],"bike_numbers":[],"bike_types":{},"place_type":"0","rack_locks":false},{"uid":10044780,"lat":50.706681,"lng":7.137606,"bike":false,"name":"Robert Schumann Platz","address":null,"spot":true,"number":4787,"booked_bikes":0,"bikes":0,"bikes_available_to_rent":0,"bike_racks":0,"free_racks":0,"special_racks":0,"free_special_racks":0,"maintenance":false,"terminal_type":"free","bike_list":[],"bike_numbers":[],"bike_types":{},"place_type":"0","rack_locks":false},{"uid":10058424,"lat":50.72143,"lng":7.114651,"bike":false,"name":"Museum König","address":null,"spot":true,"number":4874,"booked_bikes":0,"bikes":0,"bikes_available_to_rent":0,"bike_racks":0,"free_racks":0,"special_racks":0,"free_special_racks":0,"maintenance":false,"terminal_type":"free","bike_list":[],"bike_numbers":[],"bike_types":{},"place_type":"0","rack_locks":false},{"uid":10058463,"lat":50.742695,"lng":7.117317,"bike":false,"name":"Rheindorfer Straße","address":null,"spot":true,"number":4877,"booked_bikes":0,"bikes":0,"bikes_available_to_rent":0,"bike_racks":0,"free_racks":0,"special_racks":0,"free_special_racks":0,"maintenance":false,"terminal_type":"free","bike_list":[],"bike_numbers":[],"bike_types":{},"place_type":"0","rack_locks":false},{"uid":10058482,"lat":50.740943,"lng":7.131441,"bike":false,"name":"Schauspielhalle","address":null,"spot":true,"number":4878,"booked_bikes":0,"bikes":0,"bikes_available_to_rent":0,"bike_racks":0,"free_racks":0,"special_racks":0,"free_special_racks":0,"maintenance":false,"terminal_type":"free","bike_list":[],"bike_numbers":[],"bike_types":{},"place_type":"0","rack_locks":false},{"uid":10058493,"lat":50.732863,"lng":7.083832,"bike":false,"name":"Karlstraße","address":null,"spot":true,"number":4879,"booked_bikes":0,"bikes":0,"bikes_available_to_rent":0,"bike_racks":0,"free_racks":0,"special_racks":0,"free_special_racks":0,"maintenance":false,"terminal_type":"free","bike_list":[],"bike_numbers":[],"bike_types":{},"place_type":"0","rack_locks":false},{"uid":10058501,"lat":50.743445,"lng":7.090307,"bike":false,"name":"Chlodwigplatz","address":null,"spot":true,"number":4880,"booked_bikes":0,"bikes":0,"bikes_available_to_rent":0,"bike_racks":0,"free_racks":0,"special_racks":0,"free_special_racks":0,"maintenance":false,"terminal_type":"free","bike_list":[],"bike_numbers":[],"bike_types":{},"place_type":"0","rack_locks":false},{"uid":10058514,"lat":50.741469,"lng":7.097817,"bike":false,"name":"Rosental/Am Johanneskreuz","address":null,"spot":true,"number":4882,"booked_bikes":0,"bikes":0,"bikes_available_to_rent":0,"bike_racks":0,"free_racks":0,"special_racks":0,"free_special_racks":0,"maintenance":false,"terminal_type":"free","bike_list":[],"bike_numbers":[],"bike_types":{},"place_type":"0","rack_locks":false},{"uid":10058527,"lat":50.75523,"lng":7.076526,"bike":false,"name":"Pariser Straße","address":null,"spot":true,"number":4883,"booked_bikes":0,"bikes":0,"bikes_available_to_rent":0,"bike_racks":0,"free_racks":0,"special_racks":0,"free_special_racks":0,"maintenance":true,"terminal_type":"free","bike_list":[],"bike_numbers":[],"bike_types":{},"place_type":"0","rack_locks":false},{"uid":10058536,"lat":50.749755,"lng":7.046147,"bike":false,"name":"Tannenbusch Mitte","address":null,"spot":true,"number":4884,"booked_bikes":0,"bikes":0,"bikes_available_to_rent":0,"bike_racks":0,"free_racks":0,"special_racks":0,"free_special_racks":0,"maintenance":false,"terminal_type":"free","bike_list":[],"bike_numbers":[],"bike_types":{},"place_type":"0","rack_locks":false},{"uid":10058548,"lat":50.726092,"lng":7.073978,"bike":false,"name":"Magdalenenplatz","address":null,"spot":true,"number":4886,"booked_bikes":0,"bikes":0,"bikes_available_to_rent":0,"bike_racks":0,"free_racks":0,"special_racks":0,"free_special_racks":0,"maintenance":false,"terminal_type":"free","bike_list":[],"bike_numbers":[],"bike_types":{},"place_type":"0","rack_locks":false},{"uid":10058564,"lat":50.739524,"lng":7.087335,"bike":false,"name":"Frankenbad/Vorgebirgsstraße","address":null,"spot":true,"number":4888,"booked_bikes":0,"bikes":0,"bikes_available_to_rent":0,"bike_racks":0,"free_racks":0,"special_racks":0,"free_special_racks":0,"maintenance":false,"terminal_type":"free","bike_list":[],"bike_numbers":[],"bike_types":{},"place_type":"0","rack_locks":false},{"uid":10058571,"lat":50.697504,"lng":7.08042,"bike":false,"name":"Ippendorf","address":null,"spot":true,"number":4889,"booked_bikes":0,"bikes":0,"bikes_available_to_rent":0,"bike_racks":0,"free_racks":0,"special_racks":0,"free_special_racks":0,"maintenance":false,"terminal_type":"free","bike_list":[],"bike_numbers":[],"bike_types":{},"place_type":"0","rack_locks":false},{"uid":10059156,"lat":50.737971,"lng":7.113851,"bike":false,"name":"Hans-Steger-Ufer","address":null,"spot":true,"number":4890,"booked_bikes":0,"bikes":0,"bikes_available_to_rent":0,"bike_racks":0,"free_racks":0,"special_racks":0,"free_special_racks":0,"maintenance":false,"terminal_type":"free","bike_list":[],"bike_numbers":[],"bike_types":{},"place_type":"0","rack_locks":false},{"uid":10059187,"lat":50.754283,"lng":7.146741,"bike":false,"name":"Vilich Müldorf","address":null,"spot":true,"number":4894,"booked_bikes":0,"bikes":0,"bikes_available_to_rent":0,"bike_racks":0,"free_racks":0,"special_racks":0,"free_special_racks":0,"maintenance":false,"terminal_type":"free","bike_list":[],"bike_numbers":[],"bike_types":{},"place_type":"0","rack_locks":false},{"uid":10059220,"lat":50.71626,"lng":7.041636,"bike":false,"name":"Bahnhof Duisdorf","address":null,"spot":true,"number":4896,"booked_bikes":0,"bikes":0,"bikes_available_to_rent":0,"bike_racks":0,"free_racks":0,"special_racks":0,"free_special_racks":0,"maintenance":false,"terminal_type":"free","bike_list":[],"bike_numbers":[],"bike_types":{},"place_type":"0","rack_locks":false},{"uid":10059244,"lat":50.699567,"lng":7.057251,"bike":false,"name":"Celsiusstraße","address":null,"spot":true,"number":4899,"booked_bikes":0,"bikes":0,"bikes_available_to_rent":0,"bike_racks":0,"free_racks":0,"special_racks":0,"free_special_racks":0,"maintenance":false,"terminal_type":"free","bike_list":[],"bike_numbers":[],"bike_types":{},"place_type":"0","rack_locks":false},{"uid":10059319,"lat":50.691768,"lng":7.148076,"bike":false,"name":"Wurzer Straße","address":null,"spot":true,"number":4970,"booked_bikes":0,"bikes":0,"bikes_available_to_rent":0,"bike_racks":0,"free_racks":0,"special_racks":0,"free_special_racks":0,"maintenance":false,"terminal_type":"free","bike_list":[],"bike_numbers":[],"bike_types":{},"place_type":"0","rack_locks":false},{"uid":10059334,"lat":50.687547,"lng":7.154074,"bike":false,"name":"Haltepunkt Plittersdorfer Straße","address":null,"spot":true,"number":4971,"booked_bikes":0,"bikes":0,"bikes_available_to_rent":0,"bike_racks":0,"free_racks":0,"special_racks":0,"free_special_racks":0,"maintenance":false,"terminal_type":"free","bike_list":[],"bike_numbers":[],"bike_types":{},"place_type":"0","rack_locks":false},{"uid":10059347,"lat":50.683143,"lng":7.159175,"bike":false,"name":"Bahnhof Godesberg","address":null,"spot":true,"number":4973,"booked_bikes":0,"bikes":5,"bikes_available_to_rent":5,"bike_racks":0,"free_racks":0,"special_racks":0,"free_special_racks":0,"maintenance":false,"terminal_type":"free","bike_list":[{"number":"44766","bike_type":71,"lock_types":["frame_lock"],"active":true,"state":"ok","electric_lock":true,"boardcomputer":7551058640,"pedelec_battery":null,"battery_pack":null},{"number":"44681","bike_type":71,"lock_types":["frame_lock"],"active":true,"state":"ok","electric_lock":true,"boardcomputer":7551058555,"pedelec_battery":null,"battery_pack":null},{"number":"45456","bike_type":71,"lock_types":["frame_lock"],"active":true,"state":"ok","electric_lock":true,"boardcomputer":7551036485,"pedelec_battery":null,"battery_pack":null},{"number":"45398","bike_type":71,"lock_types":["frame_lock"],"active":true,"state":"ok","electric_lock":true,"boardcomputer":7551057921,"pedelec_battery":null,"battery_pack":null},{"number":"46003","bike_type":143,"lock_types":["frame_lock"],"active":true,"state":"ok","electric_lock":true,"boardcomputer":7551052088,"pedelec_battery":89,"battery_pack":{"percentage":89}}],"bike_numbers":["44766","44681","45456","45398","46003"],"bike_types":{"71":4,"143":1},"place_type":"0","rack_locks":false},{"uid":10059413,"lat":50.668494,"lng":7.181722,"bike":false,"name":"Bahnhof Mehlem","address":null,"spot":true,"number":4974,"booked_bikes":0,"bikes":1,"bikes_available_to_rent":1,"bike_racks":0,"free_racks":0,"special_racks":0,"free_special_racks":0,"maintenance":false,"terminal_type":"free","bike_list":[{"number":"46032","bike_type":143,"lock_types":["frame_lock"],"active":true,"state":"ok","electric_lock":true,"boardcomputer":7551063917,"pedelec_battery":95,"battery_pack":{"percentage":95}}],"bike_numbers":["46032"],"bike_types":{"143":1},"place_type":"0","rack_locks":false},{"uid":10059425,"lat":50.683765,"lng":7.155844,"bike":false,"name":"Koblenzer Straße","address":null,"spot":true,"number":4975,"booked_bikes":0,"bikes":0,"bikes_available_to_rent":0,"bike_racks":0,"free_racks":0,"special_racks":0,"free_special_racks":0,"maintenance":false,"terminal_type":"free","bike_list":[],"bike_numbers":[],"bike_types":{},"place_type":"0","rack_locks":false},{"uid":10059495,"lat":50.758852,"lng":7.047053,"bike":false,"name":"Buschdorf","address":null,"spot":true,"number":4982,"booked_bikes":0,"bikes":0,"bikes_available_to_rent":0,"bike_racks":0,"free_racks":0,"special_racks":0,"free_special_racks":0,"maintenance":false,"terminal_type":"free","bike_list":[],"bike_numbers":[],"bike_types":{},"place_type":"0","rack_locks":false},{"uid":10059545,"lat":50.706816,"lng":7.033889,"bike":false,"name":"Malteser Krankenhaus","address":null,"spot":true,"number":4984,"booked_bikes":0,"bikes":0,"bikes_available_to_rent":0,"bike_racks":0,"free_racks":0,"special_racks":0,"free_special_racks":0,"maintenance":false,"terminal_type":"free","bike_list":[],"bike_numbers":[],"bike_types":{},"place_type":"0","rack_locks":false},{"uid":10059589,"lat":50.69206,"lng":7.064745,"bike":false,"name":"Ückesdorf","address":null,"spot":true,"number":4985,"booked_bikes":0,"bikes":0,"bikes_available_to_rent":0,"bike_racks":0,"free_racks":0,"special_racks":0,"free_special_racks":0,"maintenance":false,"terminal_type":"free","bike_list":[],"bike_numbers":[],"bike_types":{},"place_type":"0","rack_locks":false},{"uid":10059595,"lat":50.678006,"lng":7.070915,"bike":false,"name":"Röttgen","address":null,"spot":true,"number":4986,"booked_bikes":0,"bikes":0,"bikes_available_to_rent":0,"bike_racks":0,"free_racks":0,"special_racks":0,"free_special_racks":0,"maintenance":false,"terminal_type":"free","bike_list":[],"bike_numbers":[],"bike_types":{},"place_type":"0","rack_locks":false},{"uid":10059613,"lat":50.664601,"lng":7.171181,"bike":false,"name":"Lannesdorf Mitte","address":null,"spot":true,"number":4987,"booked_bikes":0,"bikes":0,"bikes_available_to_rent":0,"bike_racks":0,"free_racks":0,"special_racks":0,"free_special_racks":0,"maintenance":false,"terminal_type":"free","bike_list":[],"bike_numbers":[],"bike_types":{},"place_type":"0","rack_locks":false},{"uid":10059620,"lat":50.670497,"lng":7.16116,"bike":false,"name":"Muffendorf Kommende","address":null,"spot":true,"number":4988,"booked_bikes":0,"bikes":0,"bikes_available_to_rent":0,"bike_racks":0,"free_racks":0,"special_racks":0,"free_special_racks":0,"maintenance":false,"terminal_type":"free","bike_list":[],"bike_numbers":[],"bike_types":{},"place_type":"0","rack_locks":false},{"uid":10059626,"lat":50.698048,"lng":7.126812,"bike":false,"name":"Friesdorf Klufterplatz","address":null,"spot":true,"number":4989,"booked_bikes":0,"bikes":0,"bikes_available_to_rent":0,"bike_racks":0,"free_racks":0,"special_racks":0,"free_special_racks":0,"maintenance":false,"terminal_type":"free","bike_list":[],"bike_numbers":[],"bike_types":{},"place_type":"0","rack_locks":false},{"uid":10478976,"lat":50.739942,"lng":7.103106,"bike":false,"name":"SWB Haupteingang","address":null,"spot":true,"number":4972,"booked_bikes":0,"bikes":0,"bikes_available_to_rent":0,"bike_racks":0,"free_racks":0,"special_racks":0,"free_special_racks":0,"maintenance":false,"terminal_type":"free","bike_list":[],"bike_numbers":[],"bike_types":{},"place_type":"0","rack_locks":false},{"uid":10666213,"lat":50.734985,"lng":7.061752,"bike":false,"name":"Endenich Nord/ Auf dem Hügel","address":null,"spot":true,"number":4739,"booked_bikes":0,"bikes":0,"bikes_available_to_rent":0,"bike_racks":0,"free_racks":0,"special_racks":0,"free_special_racks":0,"maintenance":false,"terminal_type":"free","bike_list":[],"bike_numbers":[],"bike_types":{},"place_type":"0","rack_locks":false},{"uid":12528644,"lat":50.704497,"lng":7.112296,"bike":false,"name":"Quirinusplatz","address":null,"spot":true,"number":4780,"booked_bikes":0,"bikes":0,"bikes_available_to_rent":0,"bike_racks":0,"free_racks":0,"special_racks":0,"free_special_racks":0,"maintenance":false,"terminal_type":"free","bike_list":[],"bike_numbers":[],"bike_types":{},"place_type":"0","rack_locks":false},{"uid":12585369,"lat":50.715809,"lng":7.050042,"bike":false,"name":"Rochusstraße","address":null,"spot":true,"number":4897,"booked_bikes":0,"bikes":0,"bikes_available_to_rent":0,"bike_racks":0,"free_racks":0,"special_racks":0,"free_special_racks":0,"maintenance":false,"terminal_type":"free","bike_list":[],"bike_numbers":[],"bike_types":{},"place_type":"0","rack_locks":false},{"uid":16804329,"lat":50.739524,"lng":7.117767,"bike":false,"name":"Konrad-Adenauer-Platz","address":null,"spot":true,"number":4783,"booked_bikes":0,"bikes":0,"bikes_available_to_rent":0,"bike_racks":0,"free_racks":0,"special_racks":0,"free_special_racks":0,"maintenance":false,"terminal_type":"free","bike_list":[],"bike_numbers":[],"bike_types":{},"place_type":"0","rack_locks":false},{"uid":44194399,"lat":50.654884,"lng":7.187973,"bike":true,"name":"BIKE 45009","address":null,"spot":false,"number":0,"booked_bikes":0,"bikes":1,"bikes_available_to_rent":1,"bike_racks":0,"free_racks":0,"special_racks":0,"free_special_racks":0,"maintenance":false,"terminal_type":"","bike_list":[{"number":"45009","bike_type":71,"lock_types":["frame_lock"],"active":true,"state":"ok","electric_lock":true,"boardcomputer":7551012297,"pedelec_battery":null,"battery_pack":null}],"bike_numbers":["45009"],"bike_types":{"71":1},"place_type":"12","rack_locks":false},{"uid":44231356,"lat":50.724324,"lng":7.135067,"bike":true,"name":"BIKE 45062","address":null,"spot":false,"number":0,"booked_bikes":0,"bikes":1,"bikes_available_to_rent":1,"bike_racks":0,"free_racks":0,"special_racks":0,"free_special_racks":0,"maintenance":false,"terminal_type":"","bike_list":[{"number":"45062","bike_type":71,"lock_types":["frame_lock"],"active":true,"state":"ok","electric_lock":true,"boardcomputer":7551013325,"pedelec_battery":null,"battery_pack":null}],"bike_numbers":["45062"],"bike_types":{"71":1},"place_type":"12","rack_locks":false},{"uid":44254649,"lat":50.754538,"lng":7.042581,"bike":true,"name":"BIKE 44678","address":null,"spot":false,"number":0,"booked_bikes":0,"bikes":1,"bikes_available_to_rent":1,"bike_racks":0,"free_racks":0,"special_racks":0,"free_special_racks":0,"maintenance":false,"terminal_type":"","bike_list":[{"number":"44678","bike_type":71,"lock_types":["frame_lock"],"active":true,"state":"ok","electric_lock":true,"boardcomputer":7551058245,"pedelec_battery":null,"battery_pack":null}],"bike_numbers":["44678"],"bike_types":{"71":1},"place_type":"12","rack_locks":false},{"uid":44269624,"lat":50.754751,"lng":7.086843,"bike":true,"name":"BIKE 44654","address":null,"spot":false,"number":0,"booked_bikes":0,"bikes":1,"bikes_available_to_rent":1,"bike_racks":0,"free_racks":0,"special_racks":0,"free_special_racks":0,"maintenance":false,"terminal_type":"","bike_list":[{"number":"44654","bike_type":71,"lock_types":["frame_lock"],"active":true,"state":"ok","electric_lock":true,"boardcomputer":7551004612,"pedelec_battery":null,"battery_pack":null}],"bike_numbers":["44654"],"bike_types":{"71":1},"place_type":"12","rack_locks":false},{"uid":44294221,"lat":50.758467,"lng":7.046434,"bike":true,"name":"BIKE 44970","address":null,"spot":false,"number":0,"booked_bikes":0,"bikes":1,"bikes_available_to_rent":1,"bike_racks":0,"free_racks":0,"special_racks":0,"free_special_racks":0,"maintenance":false,"terminal_type":"","bike_list":[{"number":"44970","bike_type":71,"lock_types":["frame_lock"],"active":true,"state":"ok","electric_lock":true,"boardcomputer":7551058717,"pedelec_battery":null,"battery_pack":null}],"bike_numbers":["44970"],"bike_types":{"71":1},"place_type":"12","rack_locks":false},{"uid":44300414,"lat":50.730169,"lng":7.147488,"bike":true,"name":"BIKE 45352","address":null,"spot":false,"number":0,"booked_bikes":0,"bikes":1,"bikes_available_to_rent":1,"bike_racks":0,"free_racks":0,"special_racks":0,"free_special_racks":0,"maintenance":false,"terminal_type":"","bike_list":[{"number":"45352","bike_type":150,"lock_types":["frame_lock"],"active":true,"state":"ok","electric_lock":true,"boardcomputer":7551054042,"pedelec_battery":null,"battery_pack":null}],"bike_numbers":["45352"],"bike_types":{"150":1},"place_type":"12","rack_locks":false},{"uid":44302807,"lat":50.747538,"lng":7.139466,"bike":true,"name":"BIKE 45495","address":null,"spot":false,"number":0,"booked_bikes":0,"bikes":1,"bikes_available_to_rent":1,"bike_racks":0,"free_racks":0,"special_racks":0,"free_special_racks":0,"maintenance":false,"terminal_type":"","bike_list":[{"number":"45495","bike_type":71,"lock_types":["frame_lock"],"active":true,"state":"ok","electric_lock":true,"boardcomputer":7551057135,"pedelec_battery":null,"battery_pack":null}],"bike_numbers":["45495"],"bike_types":{"71":1},"place_type":"12","rack_locks":false},{"uid":44304799,"lat":50.747818,"lng":7.150062,"bike":true,"name":"BIKE 44582","address":null,"spot":false,"number":0,"booked_bikes":0,"bikes":1,"bikes_available_to_rent":1,"bike_racks":0,"free_racks":0,"special_racks":0,"free_special_racks":0,"maintenance":false,"terminal_type":"","bike_list":[{"number":"44582","bike_type":71,"lock_types":["frame_lock"],"active":true,"state":"ok","electric_lock":true,"boardcomputer":7551004920,"pedelec_battery":null,"battery_pack":null}],"bike_numbers":["44582"],"bike_types":{"71":1},"place_type":"12","rack_locks":false},{"uid":44310270,"lat":50.733627,"lng":7.116844,"bike":true,"name":"BIKE 45239","address":null,"spot":false,"number":0,"booked_bikes":0,"bikes":1,"bikes_available_to_rent":1,"bike_racks":0,"free_racks":0,"special_racks":0,"free_special_racks":0,"maintenance":false,"terminal_type":"","bike_list":[{"number":"45239","bike_type":71,"lock_types":["frame_lock"],"active":true,"state":"ok","electric_lock":true,"boardcomputer":7551020554,"pedelec_battery":null,"battery_pack":null}],"bike_numbers":["45239"],"bike_types":{"71":1},"place_type":"12","rack_locks":false},{"uid":44312524,"lat":50.681484,"lng":7.187472,"bike":true,"name":"BIKE 45264","address":null,"spot":false,"number":0,"booked_bikes":0,"bikes":1,"bikes_available_to_rent":1,"bike_racks":0,"free_racks":0,"special_racks":0,"free_special_racks":0,"maintenance":false,"terminal_type":"","bike_list":[{"number":"45264","bike_type":71,"lock_types":["frame_lock"],"active":true,"state":"ok","electric_lock":true,"boardcomputer":7551014678,"pedelec_battery":null,"battery_pack":null}],"bike_numbers":["45264"],"bike_types":{"71":1},"place_type":"12","rack_locks":false},{"uid":44313230,"lat":50.72916,"lng":7.045891,"bike":true,"name":"BIKE 44911","address":null,"spot":false,"number":0,"booked_bikes":0,"bikes":1,"bikes_available_to_rent":1,"bike_racks":0,"free_racks":0,"special_racks":0,"free_special_racks":0,"maintenance":false,"terminal_type":"","bike_list":[{"number":"44911","bike_type":71,"lock_types":["frame_lock"],"active":true,"state":"ok","electric_lock":true,"boardcomputer":7551006380,"pedelec_battery":null,"battery_pack":null}],"bike_numbers":["44911"],"bike_types":{"71":1},"place_type":"12","rack_locks":false},{"uid":44314568,"lat":50.699391,"lng":7.129222,"bike":true,"name":"BIKE 44935","address":null,"spot":false,"number":0,"booked_bikes":0,"bikes":1,"bikes_available_to_rent":1,"bike_racks":0,"free_racks":0,"special_racks":0,"free_special_racks":0,"maintenance":false,"terminal_type":"","bike_list":[{"number":"44935","bike_type":71,"lock_types":["frame_lock"],"active":true,"state":"ok","electric_lock":true,"boardcomputer":7551007204,"pedelec_battery":null,"battery_pack":null}],"bike_numbers":["44935"],"bike_types":{"71":1},"place_type":"12","rack_locks":false},{"uid":44315124,"lat":50.687916,"lng":7.143972,"bike":true,"name":"BIKE 45098","address":null,"spot":false,"number":0,"booked_bikes":0,"bikes":1,"bikes_available_to_rent":1,"bike_racks":0,"free_racks":0,"special_racks":0,"free_special_racks":0,"maintenance":false,"terminal_type":"","bike_list":[{"number":"45098","bike_type":71,"lock_types":["frame_lock"],"active":true,"state":"ok","electric_lock":true,"boardcomputer":7551013828,"pedelec_battery":null,"battery_pack":null}],"bike_numbers":["45098"],"bike_types":{"71":1},"place_type":"12","rack_locks":false},{"uid":44316326,"lat":50.70884,"lng":7.178409,"bike":true,"name":"BIKE 45034","address":null,"spot":false,"number":0,"booked_bikes":0,"bikes":1,"bikes_available_to_rent":1,"bike_racks":0,"free_racks":0,"special_racks":0,"free_special_racks":0,"maintenance":false,"terminal_type":"","bike_list":[{"number":"45034","bike_type":71,"lock_types":["frame_lock"],"active":true,"state":"ok","electric_lock":true,"boardcomputer":7551013049,"pedelec_battery":null,"battery_pack":null}],"bike_numbers":["45034"],"bike_types":{"71":1},"place_type":"12","rack_locks":false},{"uid":44318074,"lat":50.695516,"lng":7.155657,"bike":true,"name":"BIKE 44932","address":null,"spot":false,"number":0,"booked_bikes":0,"bikes":1,"bikes_available_to_rent":1,"bike_racks":0,"free_racks":0,"special_racks":0,"free_special_racks":0,"maintenance":false,"terminal_type":"","bike_list":[{"number":"44932","bike_type":71,"lock_types":["frame_lock"],"active":true,"state":"ok","electric_lock":true,"boardcomputer":7551006817,"pedelec_battery":null,"battery_pack":null}],"bike_numbers":["44932"],"bike_types":{"71":1},"place_type":"12","rack_locks":false},{"uid":44318141,"lat":50.7448,"lng":7.151201,"bike":true,"name":"BIKE 45237","address":null,"spot":false,"number":0,"booked_bikes":0,"bikes":1,"bikes_available_to_rent":1,"bike_racks":0,"free_racks":0,"special_racks":0,"free_special_racks":0,"maintenance":false,"terminal_type":"","bike_list":[{"number":"45237","bike_type":71,"lock_types":["frame_lock"],"active":true,"state":"ok","electric_lock":true,"boardcomputer":7551011955,"pedelec_battery":null,"battery_pack":null}],"bike_numbers":["45237"],"bike_types":{"71":1},"place_type":"12","rack_locks":false},{"uid":44318172,"lat":50.733391,"lng":7.090628,"bike":true,"name":"BIKE 45161","address":null,"spot":false,"number":0,"booked_bikes":0,"bikes":1,"bikes_available_to_rent":1,"bike_racks":0,"free_racks":0,"special_racks":0,"free_special_racks":0,"maintenance":false,"terminal_type":"","bike_list":[{"number":"45161","bike_type":71,"lock_types":["frame_lock"],"active":true,"state":"ok","electric_lock":true,"boardcomputer":7551057037,"pedelec_battery":null,"battery_pack":null}],"bike_numbers":["45161"],"bike_types":{"71":1},"place_type":"12","rack_locks":false},{"uid":44318367,"lat":50.756778,"lng":7.146531,"bike":true,"name":"BIKE 44749","address":null,"spot":false,"number":0,"booked_bikes":0,"bikes":1,"bikes_available_to_rent":1,"bike_racks":0,"free_racks":0,"special_racks":0,"free_special_racks":0,"maintenance":false,"terminal_type":"","bike_list":[{"number":"44749","bike_type":71,"lock_types":["frame_lock"],"active":true,"state":"ok","electric_lock":true,"boardcomputer":7551013058,"pedelec_battery":null,"battery_pack":null}],"bike_numbers":["44749"],"bike_types":{"71":1},"place_type":"12","rack_locks":false},{"uid":44318716,"lat":50.754347,"lng":7.08802,"bike":true,"name":"BIKE 45165","address":null,"spot":false,"number":0,"booked_bikes":0,"bikes":1,"bikes_available_to_rent":1,"bike_racks":0,"free_racks":0,"special_racks":0,"free_special_racks":0,"maintenance":false,"terminal_type":"","bike_list":[{"number":"45165","bike_type":71,"lock_types":["frame_lock"],"active":true,"state":"ok","electric_lock":true,"boardcomputer":7551019766,"pedelec_battery":null,"battery_pack":null}],"bike_numbers":["45165"],"bike_types":{"71":1},"place_type":"12","rack_locks":false},{"uid":44319173,"lat":50.711338,"lng":7.132662,"bike":true,"name":"BIKE 44581","address":null,"spot":false,"number":0,"booked_bikes":0,"bikes":1,"bikes_available_to_rent":1,"bike_racks":0,"free_racks":0,"special_racks":0,"free_special_racks":0,"maintenance":false,"terminal_type":"","bike_list":[{"number":"44581","bike_type":71,"lock_types":["frame_lock"],"active":true,"state":"ok","electric_lock":true,"boardcomputer":7551004676,"pedelec_battery":null,"battery_pack":null}],"bike_numbers":["44581"],"bike_types":{"71":1},"place_type":"12","rack_locks":false},{"uid":44319565,"lat":50.747062,"lng":7.130018,"bike":true,"name":"BIKE 45108","address":null,"spot":false,"number":0,"booked_bikes":0,"bikes":1,"bikes_available_to_rent":1,"bike_racks":0,"free_racks":0,"special_racks":0,"free_special_racks":0,"maintenance":false,"terminal_type":"","bike_list":[{"number":"45108","bike_type":71,"lock_types":["frame_lock"],"active":true,"state":"ok","electric_lock":true,"boardcomputer":7551002613,"pedelec_battery":null,"battery_pack":null}],"bike_numbers":["45108"],"bike_types":{"71":1},"place_type":"12","rack_locks":false},{"uid":44319852,"lat":50.747942,"lng":7.149558,"bike":true,"name":"BIKE 45394","address":null,"spot":false,"number":0,"booked_bikes":0,"bikes":1,"bikes_available_to_rent":1,"bike_racks":0,"free_racks":0,"special_racks":0,"free_special_racks":0,"maintenance":false,"terminal_type":"","bike_list":[{"number":"45394","bike_type":71,"lock_types":["frame_lock"],"active":true,"state":"ok","electric_lock":true,"boardcomputer":7551057084,"pedelec_battery":null,"battery_pack":null}],"bike_numbers":["45394"],"bike_types":{"71":1},"place_type":"12","rack_locks":false},{"uid":44319853,"lat":50.753027,"lng":7.118708,"bike":true,"name":"BIKE 45012","address":null,"spot":false,"number":0,"booked_bikes":0,"bikes":1,"bikes_available_to_rent":1,"bike_racks":0,"free_racks":0,"special_racks":0,"free_special_racks":0,"maintenance":false,"terminal_type":"","bike_list":[{"number":"45012","bike_type":71,"lock_types":["frame_lock"],"active":true,"state":"ok","electric_lock":true,"boardcomputer":7551058068,"pedelec_battery":null,"battery_pack":null}],"bike_numbers":["45012"],"bike_types":{"71":1},"place_type":"12","rack_locks":false},{"uid":44320300,"lat":50.742009,"lng":7.134862,"bike":true,"name":"BIKE 45263","address":null,"spot":false,"number":0,"booked_bikes":0,"bikes":1,"bikes_available_to_rent":1,"bike_racks":0,"free_racks":0,"special_racks":0,"free_special_racks":0,"maintenance":false,"terminal_type":"","bike_list":[{"number":"45263","bike_type":71,"lock_types":["frame_lock"],"active":true,"state":"ok","electric_lock":true,"boardcomputer":7551057144,"pedelec_battery":null,"battery_pack":null}],"bike_numbers":["45263"],"bike_types":{"71":1},"place_type":"12","rack_locks":false},{"uid":44320586,"lat":50.689453,"lng":7.073462,"bike":true,"name":"BIKE 45207","address":null,"spot":false,"number":0,"booked_bikes":0,"bikes":1,"bikes_available_to_rent":1,"bike_racks":0,"free_racks":0,"special_racks":0,"free_special_racks":0,"maintenance":false,"terminal_type":"","bike_list":[{"number":"45207","bike_type":71,"lock_types":["frame_lock"],"active":true,"state":"ok","electric_lock":true,"boardcomputer":7551012320,"pedelec_battery":null,"battery_pack":null}],"bike_numbers":["45207"],"bike_types":{"71":1},"place_type":"12","rack_locks":false},{"uid":44320718,"lat":50.7282,"lng":7.143287,"bike":true,"name":"BIKE 45507","address":null,"spot":false,"number":0,"booked_bikes":0,"bikes":1,"bikes_available_to_rent":1,"bike_racks":0,"free_racks":0,"special_racks":0,"free_special_racks":0,"maintenance":false,"terminal_type":"","bike_list":[{"number":"45507","bike_type":71,"lock_types":["frame_lock"],"active":true,"state":"ok","electric_lock":true,"boardcomputer":7551058217,"pedelec_battery":null,"battery_pack":null}],"bike_numbers":["45507"],"bike_types":{"71":1},"place_type":"12","rack_locks":false},{"uid":44320850,"lat":50.711324,"lng":7.18029,"bike":true,"name":"BIKE 44738","address":null,"spot":false,"number":0,"booked_bikes":0,"bikes":1,"bikes_available_to_rent":1,"bike_racks":0,"free_racks":0,"special_racks":0,"free_special_racks":0,"maintenance":false,"terminal_type":"","bike_list":[{"number":"44738","bike_type":71,"lock_types":["frame_lock"],"active":true,"state":"ok","electric_lock":true,"boardcomputer":7551003031,"pedelec_battery":null,"battery_pack":null}],"bike_numbers":["44738"],"bike_types":{"71":1},"place_type":"12","rack_locks":false},{"uid":44320880,"lat":50.669964,"lng":7.195935,"bike":true,"name":"BIKE 45438","address":null,"spot":false,"number":0,"booked_bikes":0,"bikes":1,"bikes_available_to_rent":1,"bike_racks":0,"free_racks":0,"special_racks":0,"free_special_racks":0,"maintenance":false,"terminal_type":"","bike_list":[{"number":"45438","bike_type":71,"lock_types":["frame_lock"],"active":true,"state":"ok","electric_lock":true,"boardcomputer":7551013403,"pedelec_battery":null,"battery_pack":null}],"bike_numbers":["45438"],"bike_types":{"71":1},"place_type":"12","rack_locks":false},{"uid":44320968,"lat":50.702956,"lng":7.148379,"bike":true,"name":"BIKE 45129","address":null,"spot":false,"number":0,"booked_bikes":0,"bikes":1,"bikes_available_to_rent":1,"bike_racks":0,"free_racks":0,"special_racks":0,"free_special_racks":0,"maintenance":false,"terminal_type":"","bike_list":[{"number":"45129","bike_type":71,"lock_types":["frame_lock"],"active":true,"state":"ok","electric_lock":true,"boardcomputer":7551013770,"pedelec_battery":null,"battery_pack":null}],"bike_numbers":["45129"],"bike_types":{"71":1},"place_type":"12","rack_locks":false},{"uid":44321431,"lat":50.755982,"lng":7.090124,"bike":true,"name":"BIKE 44699","address":null,"spot":false,"number":0,"booked_bikes":0,"bikes":1,"bikes_available_to_rent":1,"bike_racks":0,"free_racks":0,"special_racks":0,"free_special_racks":0,"maintenance":false,"terminal_type":"","bike_list":[{"number":"44699","bike_type":71,"lock_types":["frame_lock"],"active":true,"state":"ok","electric_lock":true,"boardcomputer":7551029326,"pedelec_battery":null,"battery_pack":null}],"bike_numbers":["44699"],"bike_types":{"71":1},"place_type":"12","rack_locks":false},{"uid":44321437,"lat":50.661262,"lng":7.182686,"bike":true,"name":"BIKE 44987","address":null,"spot":false,"number":0,"booked_bikes":0,"bikes":1,"bikes_available_to_rent":1,"bike_racks":0,"free_racks":0,"special_racks":0,"free_special_racks":0,"maintenance":false,"terminal_type":"","bike_list":[{"number":"44987","bike_type":71,"lock_types":["frame_lock"],"active":true,"state":"ok","electric_lock":true,"boardcomputer":7551004365,"pedelec_battery":null,"battery_pack":null}],"bike_numbers":["44987"],"bike_types":{"71":1},"place_type":"12","rack_locks":false},{"uid":44321879,"lat":50.689338,"lng":7.138816,"bike":true,"name":"BIKE 45018","address":null,"spot":false,"number":0,"booked_bikes":0,"bikes":1,"bikes_available_to_rent":1,"bike_racks":0,"free_racks":0,"special_racks":0,"free_special_racks":0,"maintenance":false,"terminal_type":"","bike_list":[{"number":"45018","bike_type":71,"lock_types":["frame_lock"],"active":true,"state":"ok","electric_lock":true,"boardcomputer":7551012472,"pedelec_battery":null,"battery_pack":null}],"bike_numbers":["45018"],"bike_types":{"71":1},"place_type":"12","rack_locks":false},{"uid":44322216,"lat":50.700511,"lng":7.159427,"bike":true,"name":"BIKE 44525","address":null,"spot":false,"number":0,"booked_bikes":0,"bikes":1,"bikes_available_to_rent":1,"bike_racks":0,"free_racks":0,"special_racks":0,"free_special_racks":0,"maintenance":false,"terminal_type":"","bike_list":[{"number":"44525","bike_type":71,"lock_types":["frame_lock"],"active":true,"state":"ok","electric_lock":true,"boardcomputer":7551063406,"pedelec_battery":null,"battery_pack":null}],"bike_numbers":["44525"],"bike_types":{"71":1},"place_type":"12","rack_locks":false},{"uid":44322397,"lat":50.748191,"lng":7.081354,"bike":true,"name":"BIKE 44889","address":null,"spot":false,"number":0,"booked_bikes":0,"bikes":1,"bikes_available_to_rent":1,"bike_racks":0,"free_racks":0,"special_racks":0,"free_special_racks":0,"maintenance":false,"terminal_type":"","bike_list":[{"number":"44889","bike_type":71,"lock_types":["frame_lock"],"active":true,"state":"ok","electric_lock":true,"boardcomputer":7551025754,"pedelec_battery":null,"battery_pack":null}],"bike_numbers":["44889"],"bike_types":{"71":1},"place_type":"12","rack_locks":false},{"uid":44322529,"lat":50.71084,"lng":7.13697,"bike":true,"name":"BIKE 45020","address":null,"spot":false,"number":0,"booked_bikes":0,"bikes":1,"bikes_available_to_rent":1,"bike_racks":0,"free_racks":0,"special_racks":0,"free_special_racks":0,"maintenance":false,"terminal_type":"","bike_list":[{"number":"45020","bike_type":71,"lock_types":["frame_lock"],"active":true,"state":"ok","electric_lock":true,"boardcomputer":7551036875,"pedelec_battery":null,"battery_pack":null}],"bike_numbers":["45020"],"bike_types":{"71":1},"place_type":"12","rack_locks":false},{"uid":44322640,"lat":50.702604,"lng":7.110855,"bike":true,"name":"BIKE 45443","address":null,"spot":false,"number":0,"booked_bikes":0,"bikes":1,"bikes_available_to_rent":1,"bike_racks":0,"free_racks":0,"special_racks":0,"free_special_racks":0,"maintenance":false,"terminal_type":"","bike_list":[{"number":"45443","bike_type":71,"lock_types":["frame_lock"],"active":true,"state":"ok","electric_lock":true,"boardcomputer":7551015028,"pedelec_battery":null,"battery_pack":null}],"bike_numbers":["45443"],"bike_types":{"71":1},"place_type":"12","rack_locks":false},{"uid":44322754,"lat":50.73408,"lng":7.143019,"bike":true,"name":"BIKE 45404","address":null,"spot":false,"number":0,"booked_bikes":0,"bikes":1,"bikes_available_to_rent":1,"bike_racks":0,"free_racks":0,"special_racks":0,"free_special_racks":0,"maintenance":false,"terminal_type":"","bike_list":[{"number":"45404","bike_type":71,"lock_types":["frame_lock"],"active":true,"state":"ok","electric_lock":true,"boardcomputer":7551013327,"pedelec_battery":null,"battery_pack":null}],"bike_numbers":["45404"],"bike_types":{"71":1},"place_type":"12","rack_locks":false},{"uid":44324445,"lat":50.747747,"lng":7.113923,"bike":true,"name":"BIKE 44626","address":null,"spot":false,"number":0,"booked_bikes":0,"bikes":1,"bikes_available_to_rent":1,"bike_racks":0,"free_racks":0,"special_racks":0,"free_special_racks":0,"maintenance":false,"terminal_type":"","bike_list":[{"number":"44626","bike_type":71,"lock_types":["frame_lock"],"active":true,"state":"ok","electric_lock":true,"boardcomputer":7551027231,"pedelec_battery":null,"battery_pack":null}],"bike_numbers":["44626"],"bike_types":{"71":1},"place_type":"12","rack_locks":false},{"uid":44324799,"lat":50.750982,"lng":7.135572,"bike":true,"name":"BIKE 45284","address":null,"spot":false,"number":0,"booked_bikes":0,"bikes":1,"bikes_available_to_rent":1,"bike_racks":0,"free_racks":0,"special_racks":0,"free_special_racks":0,"maintenance":false,"terminal_type":"","bike_list":[{"number":"45284","bike_type":71,"lock_types":["frame_lock"],"active":true,"state":"ok","electric_lock":true,"boardcomputer":7551059385,"pedelec_battery":null,"battery_pack":null}],"bike_numbers":["45284"],"bike_types":{"71":1},"place_type":"12","rack_locks":false},{"uid":44325512,"lat":50.750071,"lng":7.06668,"bike":true,"name":"BIKE 45143","address":null,"spot":false,"number":0,"booked_bikes":0,"bikes":1,"bikes_available_to_rent":1,"bike_racks":0,"free_racks":0,"special_racks":0,"free_special_racks":0,"maintenance":false,"terminal_type":"","bike_list":[{"number":"45143","bike_type":71,"lock_types":["frame_lock"],"active":true,"state":"ok","electric_lock":true,"boardcomputer":7551059517,"pedelec_battery":null,"battery_pack":null}],"bike_numbers":["45143"],"bike_types":{"71":1},"place_type":"12","rack_locks":false},{"uid":44325796,"lat":50.744818,"lng":7.136132,"bike":true,"name":"BIKE 44791","address":null,"spot":false,"number":0,"booked_bikes":0,"bikes":1,"bikes_available_to_rent":1,"bike_racks":0,"free_racks":0,"special_racks":0,"free_special_racks":0,"maintenance":false,"terminal_type":"","bike_list":[{"number":"44791","bike_type":71,"lock_types":["frame_lock"],"active":true,"state":"ok","electric_lock":true,"boardcomputer":7551017864,"pedelec_battery":null,"battery_pack":null}],"bike_numbers":["44791"],"bike_types":{"71":1},"place_type":"12","rack_locks":false},{"uid":44326334,"lat":50.754036,"lng":7.077205,"bike":true,"name":"BIKE 44777","address":null,"spot":false,"number":0,"booked_bikes":0,"bikes":1,"bikes_available_to_rent":1,"bike_racks":0,"free_racks":0,"special_racks":0,"free_special_racks":0,"maintenance":false,"terminal_type":"","bike_list":[{"number":"44777","bike_type":71,"lock_types":["frame_lock"],"active":true,"state":"ok","electric_lock":true,"boardcomputer":7551057892,"pedelec_battery":null,"battery_pack":null}],"bike_numbers":["44777"],"bike_types":{"71":1},"place_type":"12","rack_locks":false},{"uid":44326438,"lat":50.704231,"lng":7.116069,"bike":true,"name":"BIKE 44697","address":null,"spot":false,"number":0,"booked_bikes":0,"bikes":1,"bikes_available_to_rent":1,"bike_racks":0,"free_racks":0,"special_racks":0,"free_special_racks":0,"maintenance":false,"terminal_type":"","bike_list":[{"number":"44697","bike_type":71,"lock_types":["frame_lock"],"active":true,"state":"ok","electric_lock":true,"boardcomputer":7551058066,"pedelec_battery":null,"battery_pack":null}],"bike_numbers":["44697"],"bike_types":{"71":1},"place_type":"12","rack_locks":false},{"uid":44326439,"lat":50.704298,"lng":7.116108,"bike":true,"name":"BIKE 44799","address":null,"spot":false,"number":0,"booked_bikes":0,"bikes":1,"bikes_available_to_rent":1,"bike_racks":0,"free_racks":0,"special_racks":0,"free_special_racks":0,"maintenance":false,"terminal_type":"","bike_list":[{"number":"44799","bike_type":71,"lock_types":["frame_lock"],"active":true,"state":"ok","electric_lock":true,"boardcomputer":7551057895,"pedelec_battery":null,"battery_pack":null}],"bike_numbers":["44799"],"bike_types":{"71":1},"place_type":"12","rack_locks":false},{"uid":44326542,"lat":50.734604,"lng":7.084473,"bike":true,"name":"BIKE 45133","address":null,"spot":false,"number":0,"booked_bikes":0,"bikes":1,"bikes_available_to_rent":1,"bike_racks":0,"free_racks":0,"special_racks":0,"free_special_racks":0,"maintenance":false,"terminal_type":"","bike_list":[{"number":"45133","bike_type":71,"lock_types":["frame_lock"],"active":true,"state":"ok","electric_lock":true,"boardcomputer":7551020371,"pedelec_battery":null,"battery_pack":null}],"bike_numbers":["45133"],"bike_types":{"71":1},"place_type":"12","rack_locks":false},{"uid":44326555,"lat":50.749129,"lng":7.126207,"bike":true,"name":"BIKE 45295","address":null,"spot":false,"number":0,"booked_bikes":0,"bikes":1,"bikes_available_to_rent":1,"bike_racks":0,"free_racks":0,"special_racks":0,"free_special_racks":0,"maintenance":false,"terminal_type":"","bike_list":[{"number":"45295","bike_type":71,"lock_types":["frame_lock"],"active":true,"state":"ok","electric_lock":true,"boardcomputer":7551012818,"pedelec_battery":null,"battery_pack":null}],"bike_numbers":["45295"],"bike_types":{"71":1},"place_type":"12","rack_locks":false},{"uid":44327172,"lat":50.722942,"lng":7.063437,"bike":true,"name":"BIKE 45269","address":null,"spot":false,"number":0,"booked_bikes":1,"bikes":1,"bikes_available_to_rent":0,"bike_racks":0,"free_racks":0,"special_racks":0,"free_special_racks":0,"maintenance":false,"terminal_type":"","bike_list":[{"number":"45269","bike_type":71,"lock_types":["frame_lock"],"active":true,"state":"ok","electric_lock":true,"boardcomputer":7551020397,"pedelec_battery":null,"battery_pack":null}],"bike_numbers":["45269"],"bike_types":{"71":1},"place_type":"12","rack_locks":false},{"uid":44327196,"lat":50.664129,"lng":7.187525,"bike":true,"name":"BIKE 44605","address":null,"spot":false,"number":0,"booked_bikes":0,"bikes":1,"bikes_available_to_rent":1,"bike_racks":0,"free_racks":0,"special_racks":0,"free_special_racks":0,"maintenance":false,"terminal_type":"","bike_list":[{"number":"44605","bike_type":71,"lock_types":["frame_lock"],"active":true,"state":"ok","electric_lock":true,"boardcomputer":7551063931,"pedelec_battery":null,"battery_pack":null}],"bike_numbers":["44605"],"bike_types":{"71":1},"place_type":"12","rack_locks":false},{"uid":44327229,"lat":50.730707,"lng":7.108208,"bike":true,"name":"BIKE 44542","address":null,"spot":false,"number":0,"booked_bikes":0,"bikes":1,"bikes_available_to_rent":1,"bike_racks":0,"free_racks":0,"special_racks":0,"free_special_racks":0,"maintenance":false,"terminal_type":"","bike_list":[{"number":"44542","bike_type":71,"lock_types":["frame_lock"],"active":true,"state":"ok","electric_lock":true,"boardcomputer":7551013432,"pedelec_battery":null,"battery_pack":null}],"bike_numbers":["44542"],"bike_types":{"71":1},"place_type":"12","rack_locks":false},{"uid":44327261,"lat":50.728036,"lng":7.072792,"bike":true,"name":"BIKE 45302","address":null,"spot":false,"number":0,"booked_bikes":0,"bikes":1,"bikes_available_to_rent":1,"bike_racks":0,"free_racks":0,"special_racks":0,"free_special_racks":0,"maintenance":false,"terminal_type":"","bike_list":[{"number":"45302","bike_type":71,"lock_types":["frame_lock"],"active":true,"state":"ok","electric_lock":true,"boardcomputer":7551056819,"pedelec_battery":null,"battery_pack":null}],"bike_numbers":["45302"],"bike_types":{"71":1},"place_type":"12","rack_locks":false},{"uid":44327525,"lat":50.737978,"lng":7.046358,"bike":true,"name":"BIKE 45224","address":null,"spot":false,"number":0,"booked_bikes":0,"bikes":1,"bikes_available_to_rent":1,"bike_racks":0,"free_racks":0,"special_racks":0,"free_special_racks":0,"maintenance":false,"terminal_type":"","bike_list":[{"number":"45224","bike_type":71,"lock_types":["frame_lock"],"active":true,"state":"ok","electric_lock":true,"boardcomputer":7551012317,"pedelec_battery":null,"battery_pack":null}],"bike_numbers":["45224"],"bike_types":{"71":1},"place_type":"12","rack_locks":false},{"uid":44327794,"lat":50.731862,"lng":7.095478,"bike":true,"name":"BIKE 45290","address":null,"spot":false,"number":0,"booked_bikes":0,"bikes":1,"bikes_available_to_rent":1,"bike_racks":0,"free_racks":0,"special_racks":0,"free_special_racks":0,"maintenance":false,"terminal_type":"","bike_list":[{"number":"45290","bike_type":71,"lock_types":["frame_lock"],"active":true,"state":"ok","electric_lock":true,"boardcomputer":7551013511,"pedelec_battery":null,"battery_pack":null}],"bike_numbers":["45290"],"bike_types":{"71":1},"place_type":"12","rack_locks":false},{"uid":44327910,"lat":50.746702,"lng":7.157623,"bike":true,"name":"BIKE 45103","address":null,"spot":false,"number":0,"booked_bikes":0,"bikes":1,"bikes_available_to_rent":1,"bike_racks":0,"free_racks":0,"special_racks":0,"free_special_racks":0,"maintenance":false,"terminal_type":"","bike_list":[{"number":"45103","bike_type":71,"lock_types":["frame_lock"],"active":true,"state":"ok","electric_lock":true,"boardcomputer":7551015780,"pedelec_battery":null,"battery_pack":null}],"bike_numbers":["45103"],"bike_types":{"71":1},"place_type":"12","rack_locks":false},{"uid":44328063,"lat":50.738893,"lng":7.044217,"bike":true,"name":"BIKE 44782","address":null,"spot":false,"number":0,"booked_bikes":0,"bikes":1,"bikes_available_to_rent":1,"bike_racks":0,"free_racks":0,"special_racks":0,"free_special_racks":0,"maintenance":false,"terminal_type":"","bike_list":[{"number":"44782","bike_type":71,"lock_types":["frame_lock"],"active":true,"state":"ok","electric_lock":true,"boardcomputer":7551004213,"pedelec_battery":null,"battery_pack":null}],"bike_numbers":["44782"],"bike_types":{"71":1},"place_type":"12","rack_locks":false},{"uid":44328396,"lat":50.746782,"lng":7.059341,"bike":true,"name":"BIKE 44636","address":null,"spot":false,"number":0,"booked_bikes":0,"bikes":1,"bikes_available_to_rent":1,"bike_racks":0,"free_racks":0,"special_racks":0,"free_special_racks":0,"maintenance":false,"terminal_type":"","bike_list":[{"number":"44636","bike_type":71,"lock_types":["frame_lock"],"active":true,"state":"ok","electric_lock":true,"boardcomputer":7551004750,"pedelec_battery":null,"battery_pack":null}],"bike_numbers":["44636"],"bike_types":{"71":1},"place_type":"12","rack_locks":false},{"uid":44328513,"lat":50.707138,"lng":7.170969,"bike":true,"name":"BIKE 45040","address":null,"spot":false,"number":0,"booked_bikes":0,"bikes":1,"bikes_available_to_rent":1,"bike_racks":0,"free_racks":0,"special_racks":0,"free_special_racks":0,"maintenance":false,"terminal_type":"","bike_list":[{"number":"45040","bike_type":71,"lock_types":["frame_lock"],"active":true,"state":"ok","electric_lock":true,"boardcomputer":7551004725,"pedelec_battery":null,"battery_pack":null}],"bike_numbers":["45040"],"bike_types":{"71":1},"place_type":"12","rack_locks":false},{"uid":44328594,"lat":50.731973,"lng":7.095794,"bike":true,"name":"BIKE 44943","address":null,"spot":false,"number":0,"booked_bikes":0,"bikes":1,"bikes_available_to_rent":1,"bike_racks":0,"free_racks":0,"special_racks":0,"free_special_racks":0,"maintenance":false,"terminal_type":"","bike_list":[{"number":"44943","bike_type":71,"lock_types":["frame_lock"],"active":true,"state":"ok","electric_lock":true,"boardcomputer":7551018130,"pedelec_battery":null,"battery_pack":null}],"bike_numbers":["44943"],"bike_types":{"71":1},"place_type":"12","rack_locks":false},{"uid":44328898,"lat":50.692418,"lng":7.131717,"bike":true,"name":"BIKE 44883","address":null,"spot":false,"number":0,"booked_bikes":0,"bikes":1,"bikes_available_to_rent":1,"bike_racks":0,"free_racks":0,"special_racks":0,"free_special_racks":0,"maintenance":false,"terminal_type":"","bike_list":[{"number":"44883","bike_type":71,"lock_types":["frame_lock"],"active":true,"state":"ok","electric_lock":true,"boardcomputer":7551058459,"pedelec_battery":null,"battery_pack":null}],"bike_numbers":["44883"],"bike_types":{"71":1},"place_type":"12","rack_locks":false},{"uid":44328900,"lat":50.70148,"lng":7.136762,"bike":true,"name":"BIKE 45373","address":null,"spot":false,"number":0,"booked_bikes":0,"bikes":1,"bikes_available_to_rent":1,"bike_racks":0,"free_racks":0,"special_racks":0,"free_special_racks":0,"maintenance":false,"terminal_type":"","bike_list":[{"number":"45373","bike_type":71,"lock_types":["frame_lock"],"active":true,"state":"ok","electric_lock":true,"boardcomputer":7551025414,"pedelec_battery":null,"battery_pack":null}],"bike_numbers":["45373"],"bike_types":{"71":1},"place_type":"12","rack_locks":false},{"uid":44329025,"lat":50.686969,"lng":7.144296,"bike":true,"name":"BIKE 44643","address":null,"spot":false,"number":0,"booked_bikes":0,"bikes":1,"bikes_available_to_rent":1,"bike_racks":0,"free_racks":0,"special_racks":0,"free_special_racks":0,"maintenance":false,"terminal_type":"","bike_list":[{"number":"44643","bike_type":71,"lock_types":["frame_lock"],"active":true,"state":"ok","electric_lock":true,"boardcomputer":7551004680,"pedelec_battery":null,"battery_pack":null}],"bike_numbers":["44643"],"bike_types":{"71":1},"place_type":"12","rack_locks":false},{"uid":44329039,"lat":50.757382,"lng":7.072961,"bike":true,"name":"BIKE 44745","address":null,"spot":false,"number":0,"booked_bikes":0,"bikes":1,"bikes_available_to_rent":1,"bike_racks":0,"free_racks":0,"special_racks":0,"free_special_racks":0,"maintenance":false,"terminal_type":"","bike_list":[{"number":"44745","bike_type":71,"lock_types":["frame_lock"],"active":true,"state":"ok","electric_lock":true,"boardcomputer":7551057077,"pedelec_battery":null,"battery_pack":null}],"bike_numbers":["44745"],"bike_types":{"71":1},"place_type":"12","rack_locks":false},{"uid":44329066,"lat":50.744076,"lng":7.112965,"bike":true,"name":"BIKE 45228","address":null,"spot":false,"number":0,"booked_bikes":0,"bikes":1,"bikes_available_to_rent":1,"bike_racks":0,"free_racks":0,"special_racks":0,"free_special_racks":0,"maintenance":false,"terminal_type":"","bike_list":[{"number":"45228","bike_type":71,"lock_types":["frame_lock"],"active":true,"state":"ok","electric_lock":true,"boardcomputer":7551012441,"pedelec_battery":null,"battery_pack":null}],"bike_numbers":["45228"],"bike_types":{"71":1},"place_type":"12","rack_locks":false},{"uid":44329178,"lat":50.738151,"lng":7.046527,"bike":true,"name":"BIKE 45067","address":null,"spot":false,"number":0,"booked_bikes":0,"bikes":1,"bikes_available_to_rent":1,"bike_racks":0,"free_racks":0,"special_racks":0,"free_special_racks":0,"maintenance":false,"terminal_type":"","bike_list":[{"number":"45067","bike_type":71,"lock_types":["frame_lock"],"active":true,"state":"ok","electric_lock":true,"boardcomputer":7551004636,"pedelec_battery":null,"battery_pack":null}],"bike_numbers":["45067"],"bike_types":{"71":1},"place_type":"12","rack_locks":false},{"uid":44329261,"lat":50.702164,"lng":7.11162,"bike":true,"name":"BIKE 44942","address":null,"spot":false,"number":0,"booked_bikes":0,"bikes":1,"bikes_available_to_rent":1,"bike_racks":0,"free_racks":0,"special_racks":0,"free_special_racks":0,"maintenance":false,"terminal_type":"","bike_list":[{"number":"44942","bike_type":71,"lock_types":["frame_lock"],"active":true,"state":"ok","electric_lock":true,"boardcomputer":7551017917,"pedelec_battery":null,"battery_pack":null}],"bike_numbers":["44942"],"bike_types":{"71":1},"place_type":"12","rack_locks":false},{"uid":44329348,"lat":50.761702,"lng":7.055414,"bike":true,"name":"BIKE 45419","address":null,"spot":false,"number":0,"booked_bikes":0,"bikes":1,"bikes_available_to_rent":1,"bike_racks":0,"free_racks":0,"special_racks":0,"free_special_racks":0,"maintenance":false,"terminal_type":"","bike_list":[{"number":"45419","bike_type":71,"lock_types":["frame_lock"],"active":true,"state":"ok","electric_lock":true,"boardcomputer":7551058644,"pedelec_battery":null,"battery_pack":null}],"bike_numbers":["45419"],"bike_types":{"71":1},"place_type":"12","rack_locks":false},{"uid":44329494,"lat":50.685204,"lng":7.16419,"bike":true,"name":"BIKE 44880","address":null,"spot":false,"number":0,"booked_bikes":0,"bikes":1,"bikes_available_to_rent":1,"bike_racks":0,"free_racks":0,"special_racks":0,"free_special_racks":0,"maintenance":false,"terminal_type":"","bike_list":[{"number":"44880","bike_type":71,"lock_types":["frame_lock"],"active":true,"state":"ok","electric_lock":true,"boardcomputer":7551036449,"pedelec_battery":null,"battery_pack":null}],"bike_numbers":["44880"],"bike_types":{"71":1},"place_type":"12","rack_locks":false},{"uid":44329658,"lat":50.762711,"lng":7.076437,"bike":true,"name":"BIKE 45491","address":null,"spot":false,"number":0,"booked_bikes":0,"bikes":1,"bikes_available_to_rent":1,"bike_racks":0,"free_racks":0,"special_racks":0,"free_special_racks":0,"maintenance":false,"terminal_type":"","bike_list":[{"number":"45491","bike_type":71,"lock_types":["frame_lock"],"active":true,"state":"ok","electric_lock":true,"boardcomputer":7551036823,"pedelec_battery":null,"battery_pack":null}],"bike_numbers":["45491"],"bike_types":{"71":1},"place_type":"12","rack_locks":false},{"uid":44329953,"lat":50.74104,"lng":7.124086,"bike":true,"name":"BIKE 44798","address":null,"spot":false,"number":0,"booked_bikes":0,"bikes":1,"bikes_available_to_rent":1,"bike_racks":0,"free_racks":0,"special_racks":0,"free_special_racks":0,"maintenance":false,"terminal_type":"","bike_list":[{"number":"44798","bike_type":71,"lock_types":["frame_lock"],"active":true,"state":"ok","electric_lock":true,"boardcomputer":7551020409,"pedelec_battery":null,"battery_pack":null}],"bike_numbers":["44798"],"bike_types":{"71":1},"place_type":"12","rack_locks":false},{"uid":44329963,"lat":50.749884,"lng":7.099548,"bike":true,"name":"BIKE 45017","address":null,"spot":false,"number":0,"booked_bikes":0,"bikes":1,"bikes_available_to_rent":1,"bike_racks":0,"free_racks":0,"special_racks":0,"free_special_racks":0,"maintenance":false,"terminal_type":"","bike_list":[{"number":"45017","bike_type":71,"lock_types":["frame_lock"],"active":true,"state":"ok","electric_lock":true,"boardcomputer":7551058207,"pedelec_battery":null,"battery_pack":null}],"bike_numbers":["45017"],"bike_types":{"71":1},"place_type":"12","rack_locks":false},{"uid":44330093,"lat":50.739142,"lng":7.105308,"bike":true,"name":"BIKE 44630","address":null,"spot":false,"number":0,"booked_bikes":0,"bikes":1,"bikes_available_to_rent":1,"bike_racks":0,"free_racks":0,"special_racks":0,"free_special_racks":0,"maintenance":false,"terminal_type":"","bike_list":[{"number":"44630","bike_type":71,"lock_types":["frame_lock"],"active":true,"state":"ok","electric_lock":true,"boardcomputer":7551025234,"pedelec_battery":null,"battery_pack":null}],"bike_numbers":["44630"],"bike_types":{"71":1},"place_type":"12","rack_locks":false},{"uid":44330195,"lat":50.757489,"lng":7.072118,"bike":true,"name":"BIKE 45477","address":null,"spot":false,"number":0,"booked_bikes":0,"bikes":1,"bikes_available_to_rent":1,"bike_racks":0,"free_racks":0,"special_racks":0,"free_special_racks":0,"maintenance":false,"terminal_type":"","bike_list":[{"number":"45477","bike_type":71,"lock_types":["frame_lock"],"active":true,"state":"ok","electric_lock":true,"boardcomputer":7551036768,"pedelec_battery":null,"battery_pack":null}],"bike_numbers":["45477"],"bike_types":{"71":1},"place_type":"12","rack_locks":false},{"uid":44330416,"lat":50.754511,"lng":7.081075,"bike":true,"name":"BIKE 45436","address":null,"spot":false,"number":0,"booked_bikes":0,"bikes":1,"bikes_available_to_rent":1,"bike_racks":0,"free_racks":0,"special_racks":0,"free_special_racks":0,"maintenance":false,"terminal_type":"","bike_list":[{"number":"45436","bike_type":71,"lock_types":["frame_lock"],"active":true,"state":"ok","electric_lock":true,"boardcomputer":7551020384,"pedelec_battery":null,"battery_pack":null}],"bike_numbers":["45436"],"bike_types":{"71":1},"place_type":"12","rack_locks":false},{"uid":44330527,"lat":50.715813,"lng":7.162341,"bike":true,"name":"BIKE 45273","address":null,"spot":false,"number":0,"booked_bikes":0,"bikes":1,"bikes_available_to_rent":1,"bike_racks":0,"free_racks":0,"special_racks":0,"free_special_racks":0,"maintenance":false,"terminal_type":"","bike_list":[{"number":"45273","bike_type":71,"lock_types":["frame_lock"],"active":true,"state":"ok","electric_lock":true,"boardcomputer":7551025647,"pedelec_battery":null,"battery_pack":null}],"bike_numbers":["45273"],"bike_types":{"71":1},"place_type":"12","rack_locks":false},{"uid":44330628,"lat":50.698991,"lng":7.123324,"bike":true,"name":"BIKE 45395","address":null,"spot":false,"number":0,"booked_bikes":0,"bikes":1,"bikes_available_to_rent":1,"bike_racks":0,"free_racks":0,"special_racks":0,"free_special_racks":0,"maintenance":false,"terminal_type":"","bike_list":[{"number":"45395","bike_type":71,"lock_types":["frame_lock"],"active":true,"state":"ok","electric_lock":true,"boardcomputer":7551013422,"pedelec_battery":null,"battery_pack":null}],"bike_numbers":["45395"],"bike_types":{"71":1},"place_type":"12","rack_locks":false},{"uid":44330630,"lat":50.732129,"lng":7.095953,"bike":true,"name":"BIKE 45077","address":null,"spot":false,"number":0,"booked_bikes":0,"bikes":1,"bikes_available_to_rent":1,"bike_racks":0,"free_racks":0,"special_racks":0,"free_special_racks":0,"maintenance":false,"terminal_type":"","bike_list":[{"number":"45077","bike_type":71,"lock_types":["frame_lock"],"active":true,"state":"ok","electric_lock":true,"boardcomputer":7551058063,"pedelec_battery":null,"battery_pack":null}],"bike_numbers":["45077"],"bike_types":{"71":1},"place_type":"12","rack_locks":false},{"uid":44330658,"lat":50.733067,"lng":7.096713,"bike":true,"name":"BIKE 45048","address":null,"spot":false,"number":0,"booked_bikes":0,"bikes":1,"bikes_available_to_rent":1,"bike_racks":0,"free_racks":0,"special_racks":0,"free_special_racks":0,"maintenance":false,"terminal_type":"","bike_list":[{"number":"45048","bike_type":71,"lock_types":["frame_lock"],"active":true,"state":"ok","electric_lock":true,"boardcomputer":7551063950,"pedelec_battery":null,"battery_pack":null}],"bike_numbers":["45048"],"bike_types":{"71":1},"place_type":"12","rack_locks":false},{"uid":44330708,"lat":50.732836,"lng":7.098672,"bike":true,"name":"BIKE 45232","address":null,"spot":false,"number":0,"booked_bikes":0,"bikes":1,"bikes_available_to_rent":1,"bike_racks":0,"free_racks":0,"special_racks":0,"free_special_racks":0,"maintenance":false,"terminal_type":"","bike_list":[{"number":"45232","bike_type":71,"lock_types":["frame_lock"],"active":true,"state":"ok","electric_lock":true,"boardcomputer":7551058065,"pedelec_battery":null,"battery_pack":null}],"bike_numbers":["45232"],"bike_types":{"71":1},"place_type":"12","rack_locks":false},{"uid":44330878,"lat":50.677324,"lng":7.168466,"bike":true,"name":"BIKE 45351","address":null,"spot":false,"number":0,"booked_bikes":0,"bikes":1,"bikes_available_to_rent":1,"bike_racks":0,"free_racks":0,"special_racks":0,"free_special_racks":0,"maintenance":false,"terminal_type":"","bike_list":[{"number":"45351","bike_type":71,"lock_types":["frame_lock"],"active":true,"state":"ok","electric_lock":true,"boardcomputer":7551012756,"pedelec_battery":null,"battery_pack":null}],"bike_numbers":["45351"],"bike_types":{"71":1},"place_type":"12","rack_locks":false},{"uid":44330988,"lat":50.748356,"lng":7.172308,"bike":true,"name":"BIKE 45382","address":null,"spot":false,"number":0,"booked_bikes":0,"bikes":1,"bikes_available_to_rent":1,"bike_racks":0,"free_racks":0,"special_racks":0,"free_special_racks":0,"maintenance":false,"terminal_type":"","bike_list":[{"number":"45382","bike_type":71,"lock_types":["frame_lock"],"active":true,"state":"ok","electric_lock":true,"boardcomputer":7551056472,"pedelec_battery":null,"battery_pack":null}],"bike_numbers":["45382"],"bike_types":{"71":1},"place_type":"12","rack_locks":false},{"uid":44331235,"lat":50.731218,"lng":7.102141,"bike":true,"name":"BIKE 44732","address":null,"spot":false,"number":0,"booked_bikes":0,"bikes":1,"bikes_available_to_rent":1,"bike_racks":0,"free_racks":0,"special_racks":0,"free_special_racks":0,"maintenance":false,"terminal_type":"","bike_list":[{"number":"44732","bike_type":71,"lock_types":["frame_lock"],"active":true,"state":"ok","electric_lock":true,"boardcomputer":7551004823,"pedelec_battery":null,"battery_pack":null}],"bike_numbers":["44732"],"bike_types":{"71":1},"place_type":"12","rack_locks":false},{"uid":44331304,"lat":50.718378,"lng":7.160698,"bike":true,"name":"BIKE 45508","address":null,"spot":false,"number":0,"booked_bikes":0,"bikes":1,"bikes_available_to_rent":1,"bike_racks":0,"free_racks":0,"special_racks":0,"free_special_racks":0,"maintenance":false,"terminal_type":"","bike_list":[{"number":"45508","bike_type":71,"lock_types":["frame_lock"],"active":true,"state":"ok","electric_lock":true,"boardcomputer":7551057061,"pedelec_battery":null,"battery_pack":null}],"bike_numbers":["45508"],"bike_types":{"71":1},"place_type":"12","rack_locks":false},{"uid":44331587,"lat":50.78068,"lng":7.151113,"bike":true,"name":"BIKE 530044","address":null,"spot":false,"number":0,"booked_bikes":0,"bikes":1,"bikes_available_to_rent":1,"bike_racks":0,"free_racks":0,"special_racks":0,"free_special_racks":0,"maintenance":false,"terminal_type":"","bike_list":[{"number":"530044","bike_type":150,"lock_types":["frame_lock"],"active":true,"state":"ok","electric_lock":true,"boardcomputer":7551062133,"pedelec_battery":null,"battery_pack":null}],"bike_numbers":["530044"],"bike_types":{"150":1},"place_type":"12","rack_locks":false},{"uid":44331730,"lat":50.750502,"lng":7.138082,"bike":true,"name":"BIKE 45528","address":null,"spot":false,"number":0,"booked_bikes":0,"bikes":1,"bikes_available_to_rent":1,"bike_racks":0,"free_racks":0,"special_racks":0,"free_special_racks":0,"maintenance":false,"terminal_type":"","bike_list":[{"number":"45528","bike_type":71,"lock_types":["frame_lock"],"active":true,"state":"ok","electric_lock":true,"boardcomputer":7551006197,"pedelec_battery":null,"battery_pack":null}],"bike_numbers":["45528"],"bike_types":{"71":1},"place_type":"12","rack_locks":false},{"uid":44331827,"lat":50.736973,"lng":7.134892,"bike":true,"name":"BIKE 44575","address":null,"spot":false,"number":0,"booked_bikes":0,"bikes":1,"bikes_available_to_rent":1,"bike_racks":0,"free_racks":0,"special_racks":0,"free_special_racks":0,"maintenance":false,"terminal_type":"","bike_list":[{"number":"44575","bike_type":71,"lock_types":["frame_lock"],"active":true,"state":"ok","electric_lock":true,"boardcomputer":7551047853,"pedelec_battery":null,"battery_pack":null}],"bike_numbers":["44575"],"bike_types":{"71":1},"place_type":"12","rack_locks":false},{"uid":44331837,"lat":50.743342,"lng":7.100389,"bike":true,"name":"BIKE 45310","address":null,"spot":false,"number":0,"booked_bikes":0,"bikes":1,"bikes_available_to_rent":1,"bike_racks":0,"free_racks":0,"special_racks":0,"free_special_racks":0,"maintenance":false,"terminal_type":"","bike_list":[{"number":"45310","bike_type":71,"lock_types":["frame_lock"],"active":true,"state":"ok","electric_lock":true,"boardcomputer":7551014381,"pedelec_battery":null,"battery_pack":null}],"bike_numbers":["45310"],"bike_types":{"71":1},"place_type":"12","rack_locks":false},{"uid":44332093,"lat":50.715978,"lng":7.111234,"bike":true,"name":"BIKE 44742","address":null,"spot":false,"number":0,"booked_bikes":0,"bikes":1,"bikes_available_to_rent":1,"bike_racks":0,"free_racks":0,"special_racks":0,"free_special_racks":0,"maintenance":false,"terminal_type":"","bike_list":[{"number":"44742","bike_type":71,"lock_types":["frame_lock"],"active":true,"state":"ok","electric_lock":true,"boardcomputer":7551059377,"pedelec_battery":null,"battery_pack":null}],"bike_numbers":["44742"],"bike_types":{"71":1},"place_type":"12","rack_locks":false},{"uid":44332137,"lat":50.722267,"lng":7.087682,"bike":true,"name":"BIKE 45101","address":null,"spot":false,"number":0,"booked_bikes":0,"bikes":1,"bikes_available_to_rent":1,"bike_racks":0,"free_racks":0,"special_racks":0,"free_special_racks":0,"maintenance":false,"terminal_type":"","bike_list":[{"number":"45101","bike_type":71,"lock_types":["frame_lock"],"active":true,"state":"ok","electric_lock":true,"boardcomputer":7551013059,"pedelec_battery":null,"battery_pack":null}],"bike_numbers":["45101"],"bike_types":{"71":1},"place_type":"12","rack_locks":false},{"uid":44332250,"lat":50.731489,"lng":7.097376,"bike":true,"name":"BIKE 45109","address":null,"spot":false,"number":0,"booked_bikes":0,"bikes":1,"bikes_available_to_rent":1,"bike_racks":0,"free_racks":0,"special_racks":0,"free_special_racks":0,"maintenance":false,"terminal_type":"","bike_list":[{"number":"45109","bike_type":71,"lock_types":["frame_lock"],"active":true,"state":"ok","electric_lock":true,"boardcomputer":7551004738,"pedelec_battery":null,"battery_pack":null}],"bike_numbers":["45109"],"bike_types":{"71":1},"place_type":"12","rack_locks":false},{"uid":44332386,"lat":50.690111,"lng":7.168578,"bike":true,"name":"BIKE 45258","address":null,"spot":false,"number":0,"booked_bikes":0,"bikes":1,"bikes_available_to_rent":1,"bike_racks":0,"free_racks":0,"special_racks":0,"free_special_racks":0,"maintenance":false,"terminal_type":"","bike_list":[{"number":"45258","bike_type":71,"lock_types":["frame_lock"],"active":true,"state":"ok","electric_lock":true,"boardcomputer":7551012432,"pedelec_battery":null,"battery_pack":null}],"bike_numbers":["45258"],"bike_types":{"71":1},"place_type":"12","rack_locks":false},{"uid":44332402,"lat":50.729924,"lng":7.095077,"bike":true,"name":"BIKE 44579","address":null,"spot":false,"number":0,"booked_bikes":0,"bikes":1,"bikes_available_to_rent":1,"bike_racks":0,"free_racks":0,"special_racks":0,"free_special_racks":0,"maintenance":false,"terminal_type":"","bike_list":[{"number":"44579","bike_type":71,"lock_types":["frame_lock"],"active":true,"state":"ok","electric_lock":true,"boardcomputer":7551004898,"pedelec_battery":null,"battery_pack":null}],"bike_numbers":["44579"],"bike_types":{"71":1},"place_type":"12","rack_locks":false},{"uid":44332445,"lat":50.734556,"lng":7.102486,"bike":true,"name":"BIKE 45411","address":null,"spot":false,"number":0,"booked_bikes":1,"bikes":1,"bikes_available_to_rent":0,"bike_racks":0,"free_racks":0,"special_racks":0,"free_special_racks":0,"maintenance":false,"terminal_type":"","bike_list":[{"number":"45411","bike_type":71,"lock_types":["frame_lock"],"active":true,"state":"ok","electric_lock":true,"boardcomputer":7551057859,"pedelec_battery":null,"battery_pack":null}],"bike_numbers":["45411"],"bike_types":{"71":1},"place_type":"12","rack_locks":false},{"uid":44332457,"lat":50.696876,"lng":7.132004,"bike":true,"name":"BIKE 44524","address":null,"spot":false,"number":0,"booked_bikes":0,"bikes":1,"bikes_available_to_rent":1,"bike_racks":0,"free_racks":0,"special_racks":0,"free_special_racks":0,"maintenance":false,"terminal_type":"","bike_list":[{"number":"44524","bike_type":71,"lock_types":["frame_lock"],"active":true,"state":"ok","electric_lock":true,"boardcomputer":7551006025,"pedelec_battery":null,"battery_pack":null}],"bike_numbers":["44524"],"bike_types":{"71":1},"place_type":"12","rack_locks":false},{"uid":44332474,"lat":50.678884,"lng":7.163401,"bike":true,"name":"BIKE 45384","address":null,"spot":false,"number":0,"booked_bikes":0,"bikes":1,"bikes_available_to_rent":1,"bike_racks":0,"free_racks":0,"special_racks":0,"free_special_racks":0,"maintenance":false,"terminal_type":"","bike_list":[{"number":"45384","bike_type":71,"lock_types":["frame_lock"],"active":true,"state":"ok","electric_lock":true,"boardcomputer":7551014010,"pedelec_battery":null,"battery_pack":null}],"bike_numbers":["45384"],"bike_types":{"71":1},"place_type":"12","rack_locks":false},{"uid":44332508,"lat":50.67416,"lng":7.155524,"bike":true,"name":"BIKE 44881","address":null,"spot":false,"number":0,"booked_bikes":0,"bikes":1,"bikes_available_to_rent":1,"bike_racks":0,"free_racks":0,"special_racks":0,"free_special_racks":0,"maintenance":false,"terminal_type":"","bike_list":[{"number":"44881","bike_type":71,"lock_types":["frame_lock"],"active":true,"state":"ok","electric_lock":true,"boardcomputer":7551003282,"pedelec_battery":null,"battery_pack":null}],"bike_numbers":["44881"],"bike_types":{"71":1},"place_type":"12","rack_locks":false},{"uid":44332558,"lat":50.699342,"lng":7.158508,"bike":true,"name":"BIKE 45279","address":null,"spot":false,"number":0,"booked_bikes":0,"bikes":1,"bikes_available_to_rent":1,"bike_racks":0,"free_racks":0,"special_racks":0,"free_special_racks":0,"maintenance":false,"terminal_type":"","bike_list":[{"number":"45279","bike_type":71,"lock_types":["frame_lock"],"active":true,"state":"ok","electric_lock":true,"boardcomputer":7551056880,"pedelec_battery":null,"battery_pack":null}],"bike_numbers":["45279"],"bike_types":{"71":1},"place_type":"12","rack_locks":false},{"uid":44332726,"lat":50.761329,"lng":7.04983,"bike":true,"name":"BIKE 45242","address":null,"spot":false,"number":0,"booked_bikes":0,"bikes":1,"bikes_available_to_rent":1,"bike_racks":0,"free_racks":0,"special_racks":0,"free_special_racks":0,"maintenance":false,"terminal_type":"","bike_list":[{"number":"45242","bike_type":71,"lock_types":["frame_lock"],"active":true,"state":"ok","electric_lock":true,"boardcomputer":7551012235,"pedelec_battery":null,"battery_pack":null}],"bike_numbers":["45242"],"bike_types":{"71":1},"place_type":"12","rack_locks":false},{"uid":44332785,"lat":50.68672,"lng":7.085931,"bike":true,"name":"BIKE 44884","address":null,"spot":false,"number":0,"booked_bikes":0,"bikes":1,"bikes_available_to_rent":1,"bike_racks":0,"free_racks":0,"special_racks":0,"free_special_racks":0,"maintenance":false,"terminal_type":"","bike_list":[{"number":"44884","bike_type":71,"lock_types":["frame_lock"],"active":true,"state":"ok","electric_lock":true,"boardcomputer":7551058650,"pedelec_battery":null,"battery_pack":null}],"bike_numbers":["44884"],"bike_types":{"71":1},"place_type":"12","rack_locks":false},{"uid":44333355,"lat":50.756307,"lng":7.15258,"bike":true,"name":"BIKE 45090","address":null,"spot":false,"number":0,"booked_bikes":0,"bikes":1,"bikes_available_to_rent":1,"bike_racks":0,"free_racks":0,"special_racks":0,"free_special_racks":0,"maintenance":false,"terminal_type":"","bike_list":[{"number":"45090","bike_type":71,"lock_types":["frame_lock"],"active":true,"state":"ok","electric_lock":true,"boardcomputer":7551004638,"pedelec_battery":null,"battery_pack":null}],"bike_numbers":["45090"],"bike_types":{"71":1},"place_type":"12","rack_locks":false},{"uid":44333585,"lat":50.754409,"lng":7.038307,"bike":true,"name":"BIKE 44908","address":null,"spot":false,"number":0,"booked_bikes":0,"bikes":1,"bikes_available_to_rent":1,"bike_racks":0,"free_racks":0,"special_racks":0,"free_special_racks":0,"maintenance":false,"terminal_type":"","bike_list":[{"number":"44908","bike_type":71,"lock_types":["frame_lock"],"active":true,"state":"ok","electric_lock":true,"boardcomputer":7551013175,"pedelec_battery":null,"battery_pack":null}],"bike_numbers":["44908"],"bike_types":{"71":1},"place_type":"12","rack_locks":false},{"uid":44333719,"lat":50.752116,"lng":7.038648,"bike":true,"name":"BIKE 45313","address":null,"spot":false,"number":0,"booked_bikes":0,"bikes":1,"bikes_available_to_rent":1,"bike_racks":0,"free_racks":0,"special_racks":0,"free_special_racks":0,"maintenance":false,"terminal_type":"","bike_list":[{"number":"45313","bike_type":71,"lock_types":["frame_lock"],"active":true,"state":"ok","electric_lock":true,"boardcomputer":7551057145,"pedelec_battery":null,"battery_pack":null}],"bike_numbers":["45313"],"bike_types":{"71":1},"place_type":"12","rack_locks":false},{"uid":44333823,"lat":50.698867,"lng":7.055746,"bike":true,"name":"BIKE 44553","address":null,"spot":false,"number":0,"booked_bikes":0,"bikes":1,"bikes_available_to_rent":1,"bike_racks":0,"free_racks":0,"special_racks":0,"free_special_racks":0,"maintenance":false,"terminal_type":"","bike_list":[{"number":"44553","bike_type":71,"lock_types":["frame_lock"],"active":true,"state":"ok","electric_lock":true,"boardcomputer":7551004784,"pedelec_battery":null,"battery_pack":null}],"bike_numbers":["44553"],"bike_types":{"71":1},"place_type":"12","rack_locks":false},{"uid":44333857,"lat":50.730311,"lng":7.130704,"bike":true,"name":"BIKE 45175","address":null,"spot":false,"number":0,"booked_bikes":0,"bikes":1,"bikes_available_to_rent":1,"bike_racks":0,"free_racks":0,"special_racks":0,"free_special_racks":0,"maintenance":false,"terminal_type":"","bike_list":[{"number":"45175","bike_type":71,"lock_types":["frame_lock"],"active":true,"state":"ok","electric_lock":true,"boardcomputer":7551017745,"pedelec_battery":null,"battery_pack":null}],"bike_numbers":["45175"],"bike_types":{"71":1},"place_type":"12","rack_locks":false},{"uid":44333888,"lat":50.747484,"lng":7.057694,"bike":true,"name":"BIKE 44874","address":null,"spot":false,"number":0,"booked_bikes":0,"bikes":1,"bikes_available_to_rent":1,"bike_racks":0,"free_racks":0,"special_racks":0,"free_special_racks":0,"maintenance":false,"terminal_type":"","bike_list":[{"number":"44874","bike_type":71,"lock_types":["frame_lock"],"active":true,"state":"ok","electric_lock":true,"boardcomputer":7551017787,"pedelec_battery":null,"battery_pack":null}],"bike_numbers":["44874"],"bike_types":{"71":1},"place_type":"12","rack_locks":false},{"uid":44333896,"lat":50.753431,"lng":7.08308,"bike":true,"name":"BIKE 45372","address":null,"spot":false,"number":0,"booked_bikes":0,"bikes":1,"bikes_available_to_rent":1,"bike_racks":0,"free_racks":0,"special_racks":0,"free_special_racks":0,"maintenance":false,"terminal_type":"","bike_list":[{"number":"45372","bike_type":71,"lock_types":["frame_lock"],"active":true,"state":"ok","electric_lock":true,"boardcomputer":7551056414,"pedelec_battery":null,"battery_pack":null}],"bike_numbers":["45372"],"bike_types":{"71":1},"place_type":"12","rack_locks":false},{"uid":44334014,"lat":50.729471,"lng":7.10865,"bike":true,"name":"BIKE 45074","address":null,"spot":false,"number":0,"booked_bikes":0,"bikes":1,"bikes_available_to_rent":1,"bike_racks":0,"free_racks":0,"special_racks":0,"free_special_racks":0,"maintenance":false,"terminal_type":"","bike_list":[{"number":"45074","bike_type":71,"lock_types":["frame_lock"],"active":true,"state":"ok","electric_lock":true,"boardcomputer":7551055956,"pedelec_battery":null,"battery_pack":null}],"bike_numbers":["45074"],"bike_types":{"71":1},"place_type":"12","rack_locks":false}]}]}]}