{"countries":[{"lat":50.7252,"lng":7.13768,"zoom":11,"name":"Bonn nextbike","hotline":"00493069205046","domain":"bf","language":"de","email":"kundenservice@nextbike.de","timezone":"Europe/Berlin","currency":"EUR","country_calling_code":"+49","system_operator_address":"nextbike GmbH, Erich-Zeigner Allee 69-73, 04229 Leipzig","country":"DE","country_name":"Germany","terms":"https://www.nextbike.de/de/agb/#202006","policy":"https://www.nextbike.de/datenschutz/","website":"https://www.nextbike.de/de/bonn/","show_bike_types":false,"show_bike_type_groups":false,"show_free_racks":false,"booked_bikes":1,"set_point_bikes":1021,"available_bikes":118,"capped_available_bikes":false,"no_registration":false,"pricing":"https://www.nextbike.de/de/bonn/preise/","cities":[{"uid":547,"lat":50.7367,"lng":7.09541,"zoom":12,"maps_icon":"","alias":"bonn","break":false,"name":"Bonn","num_places":200,"refresh_rate":"10120","bounds":{"south_west":{"lat":50.6641,"lng":7.0339},"north_east":{"lat":50.761,"lng":7.1873}},"booked_bikes":1,"set_point_bikes":1021,"available_bikes":118,"return_to_official_only":true,"bike_types":{"14":1,"71":226,"150":4,"undefined":2},"website":"https://www.nextbike.de/de/bonn/","places":[{"uid":10044279,"lat":50.739211,"lng":7.126598,"bike":false,"name":"Bahnhof Beuel","address":null,"spot":true,"number":4741,"booked_bikes":0,"bikes":0,"bikes_available_to_rent":0,"bike_racks":0,"free_racks":0,"special_racks":0,"free_special_racks":0,"maintenance":false,"terminal_type":"free","bike_list":[],"bike_numbers":[],"bike_types":{},"place_type":"0","rack_locks":false},{"uid":10044287,"lat":50.736768,"lng":7.080957,"bike":false,"name":"Haltepunkt Bonn-West","address":null,"spot":true,"number":4742,"booked_bikes":0,"bikes":0,"bikes_available_to_rent":0,"bike_racks":0,"free_racks":0,"special_racks":0,"free_special_racks":0,"maintenance":false,"terminal_type":"free","bike_list":[],"bike_numbers":[],"bike_types":{},"place_type":"0","rack_locks":false},{"uid":10044296,"lat":50.71461,"lng":7.160082,"bike":false,"name":"Bahnhof Oberkassel","address":null,"spot":true,"number":4743,"booked_bikes":0,"bikes":1,"bikes_available_to_rent":1,"bike_racks":0,"free_racks":0,"special_racks":0,"free_special_racks":0,"maintenance":false,"terminal_type":"free","bike_list":[{"number":"44630","bike_type":71,"lock_types":["frame_lock"],"active":true,"state":"ok","electric_lock":true,"boardcomputer":7551025234,"pedelec_battery":null,"battery_pack":null}],"bike_numbers":["44630"],"bike_types":{"71":1},"place_type":"0","rack_locks":false},{"uid":10044315,"lat":50.71788,"lng":7.12546,"bike":false,"name":"Bundeshaus","address":null,"spot":true,"number":4744,"booked_bikes":0,"bikes":0,"bikes_available_to_rent":0,"bike_racks":0,"free_racks":0,"special_racks":0,"free_special_racks":0,"maintenance":false,"terminal_type":"free","bike_list":[],"bike_numbers":[],"bike_types":{},"place_type":"0","rack_locks":false},{"uid":10044322,"lat":50.71757,"lng":7.090974,"bike":false,"name":"St. Marien Hospital","address":null,"spot":true,"number":4745,"booked_bikes":0,"bikes":0,"bikes_available_to_rent":0,"bike_racks":0,"free_racks":0,"special_racks":0,"free_special_racks":0,"maintenance":false,"terminal_type":"free","bike_list":[],"bike_numbers":[],"bike_types":{},"place_type":"0","rack_locks":false},{"uid":10044348,"lat":50.702784,"lng":7.10029,"bike":false,"name":"UKBonn","address":null,"spot":true,"number":4748,"booked_bikes":0,"bikes":0,"bikes_available_to_rent":0,"bike_racks":0,"free_racks":0,"special_racks":0,"free_special_racks":0,"maintenance":true,"terminal_type":"free","bike_list":[],"bike_numbers":[],"bike_types":{},"place_type":"0","rack_locks":false},{"uid":10044359,"lat":50.734919,"lng":7.102499,"bike":false,"name":"Altes Rathaus","address":null,"spot":true,"number":4749,"booked_bikes":0,"bikes":0,"bikes_available_to_rent":0,"bike_racks":0,"free_racks":0,"special_racks":0,"free_special_racks":0,"maintenance":false,"terminal_type":"free","bike_list":[],"bike_numbers":[],"bike_types":{},"place_type":"0","rack_locks":false},{"uid":10044374,"lat":50.725962,"lng":7.094151,"bike":false,"name":"Poppelsdorfer Schloss","address":null,"spot":true,"number":4750,"booked_bikes":0,"bikes":0,"bikes_available_to_rent":0,"bike_racks":0,"free_racks":0,"special_racks":0,"free_special_racks":0,"maintenance":false,"terminal_type":"free","bike_list":[],"bike_numbers":[],"bike_types":{},"place_type":"0","rack_locks":false},{"uid":10044445,"lat":50.736217,"lng":7.094604,"bike":false,"name":"Alter Friedhof","address":null,"spot":true,"number":4752,"booked_bikes":0,"bikes":0,"bikes_available_to_rent":0,"bike_racks":0,"free_racks":0,"special_racks":0,"free_special_racks":0,"maintenance":false,"terminal_type":"free","bike_list":[],"bike_numbers":[],"bike_types":{},"place_type":"0","rack_locks":false},{"uid":10044458,"lat":50.73433,"lng":7.097629,"bike":false,"name":"Bonn Information","address":null,"spot":true,"number":4753,"booked_bikes":0,"bikes":0,"bikes_available_to_rent":0,"bike_racks":0,"free_racks":0,"special_racks":0,"free_special_racks":0,"maintenance":false,"terminal_type":"free","bike_list":[],"bike_numbers":[],"bike_types":{},"place_type":"0","rack_locks":false},{"uid":10044463,"lat":50.717595,"lng":7.119956,"bike":false,"name":"Haus der Geschichte","address":null,"spot":true,"number":4754,"booked_bikes":0,"bikes":0,"bikes_available_to_rent":0,"bike_racks":0,"free_racks":0,"special_racks":0,"free_special_racks":0,"maintenance":false,"terminal_type":"free","bike_list":[],"bike_numbers":[],"bike_types":{},"place_type":"0","rack_locks":false},{"uid":10044492,"lat":50.740346,"lng":7.091728,"bike":false,"name":"Frauen Museum","address":null,"spot":true,"number":4757,"booked_bikes":0,"bikes":0,"bikes_available_to_rent":0,"bike_racks":0,"free_racks":0,"special_racks":0,"free_special_racks":0,"maintenance":false,"terminal_type":"free","bike_list":[],"bike_numbers":[],"bike_types":{},"place_type":"0","rack_locks":false},{"uid":10044499,"lat":50.736858,"lng":7.105968,"bike":false,"name":"Theater Bonn","address":null,"spot":true,"number":4759,"booked_bikes":0,"bikes":0,"bikes_available_to_rent":0,"bike_racks":0,"free_racks":0,"special_racks":0,"free_special_racks":0,"maintenance":true,"terminal_type":"free","bike_list":[],"bike_numbers":[],"bike_types":{},"place_type":"0","rack_locks":false},{"uid":10044510,"lat":50.735092,"lng":7.108273,"bike":false,"name":"Schiffsanlegestelle „Alter Zoll“","address":null,"spot":true,"number":4760,"booked_bikes":0,"bikes":0,"bikes_available_to_rent":0,"bike_racks":0,"free_racks":0,"special_racks":0,"free_special_racks":0,"maintenance":false,"terminal_type":"free","bike_list":[],"bike_numbers":[],"bike_types":{},"place_type":"0","rack_locks":false},{"uid":10044525,"lat":50.717948,"lng":7.154122,"bike":false,"name":"Bonner Bogen","address":null,"spot":true,"number":4761,"booked_bikes":0,"bikes":0,"bikes_available_to_rent":0,"bike_racks":0,"free_racks":0,"special_racks":0,"free_special_racks":0,"maintenance":false,"terminal_type":"free","bike_list":[],"bike_numbers":[],"bike_types":{},"place_type":"0","rack_locks":false},{"uid":10044530,"lat":50.718658,"lng":7.129261,"bike":false,"name":"Schiffsanlegestelle Bundeshaus","address":null,"spot":true,"number":4762,"booked_bikes":0,"bikes":0,"bikes_available_to_rent":0,"bike_racks":0,"free_racks":0,"special_racks":0,"free_special_racks":0,"maintenance":false,"terminal_type":"free","bike_list":[],"bike_numbers":[],"bike_types":{},"place_type":"0","rack_locks":false},{"uid":10044540,"lat":50.730092,"lng":7.108278,"bike":false,"name":"Juridicum","address":null,"spot":true,"number":4764,"booked_bikes":0,"bikes":0,"bikes_available_to_rent":0,"bike_racks":0,"free_racks":0,"special_racks":0,"free_special_racks":0,"maintenance":false,"terminal_type":"free","bike_list":[],"bike_numbers":[],"bike_types":{},"place_type":"0","rack_locks":false},{"uid":10044582,"lat":50.728481,"lng":7.08527,"bike":false,"name":"Campus Poppelsdorf I","address":null,"spot":true,"number":4765,"booked_bikes":0,"bikes":0,"bikes_available_to_rent":0,"bike_racks":0,"free_racks":0,"special_racks":0,"free_special_racks":0,"maintenance":false,"terminal_type":"free","bike_list":[],"bike_numbers":[],"bike_types":{},"place_type":"0","rack_locks":false},{"uid":10044627,"lat":50.710586,"lng":7.126873,"bike":false,"name":"Ollenhauerstraße","address":null,"spot":true,"number":4769,"booked_bikes":0,"bikes":0,"bikes_available_to_rent":0,"bike_racks":0,"free_racks":0,"special_racks":0,"free_special_racks":0,"maintenance":false,"terminal_type":"free","bike_list":[],"bike_numbers":[],"bike_types":{},"place_type":"0","rack_locks":false},{"uid":10044650,"lat":50.721643,"lng":7.143157,"bike":false,"name":"T-Mobile, Landgrabenweg","address":null,"spot":true,"number":4772,"booked_bikes":0,"bikes":0,"bikes_available_to_rent":0,"bike_racks":0,"free_racks":0,"special_racks":0,"free_special_racks":0,"maintenance":false,"terminal_type":"free","bike_list":[],"bike_numbers":[],"bike_types":{},"place_type":"0","rack_locks":false},{"uid":10044658,"lat":50.749956,"lng":7.175042,"bike":false,"name":"Kohlkauer Platz","address":null,"spot":true,"number":4773,"booked_bikes":0,"bikes":0,"bikes_available_to_rent":0,"bike_racks":0,"free_racks":0,"special_racks":0,"free_special_racks":0,"maintenance":false,"terminal_type":"free","bike_list":[],"bike_numbers":[],"bike_types":{},"place_type":"0","rack_locks":false},{"uid":10044664,"lat":50.73656,"lng":7.117344,"bike":false,"name":"Beuel Krankenhaus","address":null,"spot":true,"number":4774,"booked_bikes":0,"bikes":0,"bikes_available_to_rent":0,"bike_racks":0,"free_racks":0,"special_racks":0,"free_special_racks":0,"maintenance":false,"terminal_type":"free","bike_list":[],"bike_numbers":[],"bike_types":{},"place_type":"0","rack_locks":false},{"uid":10044675,"lat":50.697096,"lng":7.141677,"bike":false,"name":"Hochkreuz","address":null,"spot":true,"number":4775,"booked_bikes":0,"bikes":0,"bikes_available_to_rent":0,"bike_racks":0,"free_racks":0,"special_racks":0,"free_special_racks":0,"maintenance":false,"terminal_type":"free","bike_list":[],"bike_numbers":[],"bike_types":{},"place_type":"0","rack_locks":false},{"uid":10044687,"lat":50.725994,"lng":7.111225,"bike":false,"name":"Bundesrechnungshof","address":null,"spot":true,"number":4776,"booked_bikes":0,"bikes":0,"bikes_available_to_rent":0,"bike_racks":0,"free_racks":0,"special_racks":0,"free_special_racks":0,"maintenance":false,"terminal_type":"free","bike_list":[],"bike_numbers":[],"bike_types":{},"place_type":"0","rack_locks":false},{"uid":10044713,"lat":50.721355,"lng":7.087861,"bike":false,"name":"Poppelsdorfer Platz","address":null,"spot":true,"number":4777,"booked_bikes":0,"bikes":0,"bikes_available_to_rent":0,"bike_racks":0,"free_racks":0,"special_racks":0,"free_special_racks":0,"maintenance":false,"terminal_type":"free","bike_list":[],"bike_numbers":[],"bike_types":{},"place_type":"0","rack_locks":false},{"uid":10044733,"lat":50.727019,"lng":7.081236,"bike":false,"name":"Wiesenweg","address":null,"spot":true,"number":4781,"booked_bikes":0,"bikes":0,"bikes_available_to_rent":0,"bike_racks":0,"free_racks":0,"special_racks":0,"free_special_racks":0,"maintenance":false,"terminal_type":"free","bike_list":[],"bike_numbers":[],"bike_types":{},"place_type":"0","rack_locks":false},{"uid":10044742,"lat":50.722049,"lng":7.155165,"bike":false,"name":"Ramersdorf","address":null,"spot":true,"number":4782,"booked_bikes":0,"bikes":0,"bikes_available_to_rent":0,"bike_racks":0,"free_racks":0,"special_racks":0,"free_special_racks":0,"maintenance":false,"terminal_type":"free","bike_list":[],"bike_numbers":[],"bike_types":{},"place_type":"0","rack_locks":false},{"uid":10044761,"lat":50.735673,"lng":7.096814,"bike":false,"name":"Friedensplatz/Budapester Straße","address":null,"spot":true,"number":4785,"booked_bikes":0,"bikes":0,"bikes_available_to_rent":0,"bike_racks":0,"free_racks":0,"special_racks":0,"free_special_racks":0,"maintenance":false,"terminal_type":"free","bike_list":[],"bike_numbers":[],"bike_types":{},"place_type":"0","rack_locks":false},{"uid":10044769,"lat":50.71464,"lng":7.118325,"bike":false,"name":"UN-Campus","address":null,"spot":true,"number":4786,"booked_bikes":0,"bikes":0,"bikes_available_to_rent":0,"bike_racks":0,"free_racks":0,"special_racks":0,"free_special_racks":0,"maintenance":false,"terminal_type":"free","bike_list":[],"bike_numbers":[],"bike_types":{},"place_type":"0","rack_locks":false},{"uid":10044780,"lat":50.706681,"lng":7.137606,"bike":false,"name":"Robert Schumann Platz","address":null,"spot":true,"number":4787,"booked_bikes":0,"bikes":0,"bikes_available_to_rent":0,"bike_racks":0,"free_racks":0,"special_racks":0,"free_special_racks":0,"maintenance":false,"terminal_type":"free","bike_list":[],"bike_numbers":[],"bike_types":{},"place_type":"0","rack_locks":false},{"uid":10058424,"lat":50.72143,"lng":7.114651,"bike":false,"name":"Museum König","address":null,"spot":true,"number":4874,"booked_bikes":0,"bikes":0,"bikes_available_to_rent":0,"bike_racks":0,"free_racks":0,"special_racks":0,"free_special_racks":0,"maintenance":false,"terminal_type":"free","bike_list":[],"bike_numbers":[],"bike_types":{},"place_type":"0","rack_locks":false},{"uid":10058463,"lat":50.742695,"lng":7.117317,"bike":false,"name":"Rheindorfer Straße","address":null,"spot":true,"number":4877,"booked_bikes":0,"bikes":0,"bikes_available_to_rent":0,"bike_racks":0,"free_racks":0,"special_racks":0,"free_special_racks":0,"maintenance":false,"terminal_type":"free","bike_list":[],"bike_numbers":[],"bike_types":{},"place_type":"0","rack_locks":false},{"uid":10058482,"lat":50.740943,"lng":7.131441,"bike":false,"name":"Schauspielhalle","address":null,"spot":true,"number":4878,"booked_bikes":0,"bikes":0,"bikes_available_to_rent":0,"bike_racks":0,"free_racks":0,"special_racks":0,"free_special_racks":0,"maintenance":false,"terminal_type":"free","bike_list":[],"bike_numbers":[],"bike_types":{},"place_type":"0","rack_locks":false},{"uid":10058493,"lat":50.732863,"lng":7.083832,"bike":false,"name":"Karlstraße","address":null,"spot":true,"number":4879,"booked_bikes":0,"bikes":0,"bikes_available_to_rent":0,"bike_racks":0,"free_racks":0,"special_racks":0,"free_special_racks":0,"maintenance":false,"terminal_type":"free","bike_list":[],"bike_numbers":[],"bike_types":{},"place_type":"0","rack_locks":false},{"uid":10058501,"lat":50.743445,"lng":7.090307,"bike":false,"name":"Chlodwigplatz","address":null,"spot":true,"number":4880,"booked_bikes":0,"bikes":0,"bikes_available_to_rent":0,"bike_racks":0,"free_racks":0,"special_racks":0,"free_special_racks":0,"maintenance":false,"terminal_type":"free","bike_list":[],"bike_numbers":[],"bike_types":{},"place_type":"0","rack_locks":false},{"uid":10058514,"lat":50.741469,"lng":7.097817,"bike":false,"name":"Rosental/Am Johanneskreuz","address":null,"spot":true,"number":4882,"booked_bikes":0,"bikes":0,"bikes_available_to_rent":0,"bike_racks":0,"free_racks":0,"special_racks":0,"free_special_racks":0,"maintenance":false,"terminal_type":"free","bike_list":[],"bike_numbers":[],"bike_types":{},"place_type":"0","rack_locks":false},{"uid":10058527,"lat":50.75523,"lng":7.076526,"bike":false,"name":"Pariser Straße","address":null,"spot":true,"number":4883,"booked_bikes":0,"bikes":0,"bikes_available_to_rent":0,"bike_racks":0,"free_racks":0,"special_racks":0,"free_special_racks":0,"maintenance":true,"terminal_type":"free","bike_list":[],"bike_numbers":[],"bike_types":{},"place_type":"0","rack_locks":false},{"uid":10058536,"lat":50.749755,"lng":7.046147,"bike":false,"name":"Tannenbusch Mitte","address":null,"spot":true,"number":4884,"booked_bikes":0,"bikes":0,"bikes_available_to_rent":0,"bike_racks":0,"free_racks":0,"special_racks":0,"free_special_racks":0,"maintenance":false,"terminal_type":"free","bike_list":[],"bike_numbers":[],"bike_types":{},"place_type":"0","rack_locks":false},{"uid":10058548,"lat":50.726092,"lng":7.073978,"bike":false,"name":"Magdalenenplatz","address":null,"spot":true,"number":4886,"booked_bikes":0,"bikes":0,"bikes_available_to_rent":0,"bike_racks":0,"free_racks":0,"special_racks":0,"free_special_racks":0,"maintenance":false,"terminal_type":"free","bike_list":[],"bike_numbers":[],"bike_types":{},"place_type":"0","rack_locks":false},{"uid":10058564,"lat":50.739524,"lng":7.087335,"bike":false,"name":"Frankenbad/Vorgebirgsstraße","address":null,"spot":true,"number":4888,"booked_bikes":0,"bikes":1,"bikes_available_to_rent":1,"bike_racks":0,"free_racks":0,"special_racks":0,"free_special_racks":0,"maintenance":false,"terminal_type":"free","bike_list":[{"number":"45018","bike_type":71,"lock_types":["frame_lock"],"active":true,"state":"ok","electric_lock":true,"boardcomputer":7551012472,"pedelec_battery":null,"battery_pack":null}],"bike_numbers":["45018"],"bike_types":{"71":1},"place_type":"0","rack_locks":false},{"uid":10058571,"lat":50.697504,"lng":7.08042,"bike":false,"name":"Ippendorf","address":null,"spot":true,"number":4889,"booked_bikes":0,"bikes":0,"bikes_available_to_rent":0,"bike_racks":0,"free_racks":0,"special_racks":0,"free_special_racks":0,"maintenance":false,"terminal_type":"free","bike_list":[],"bike_numbers":[],"bike_types":{},"place_type":"0","rack_locks":false},{"uid":10059156,"lat":50.737971,"lng":7.113851,"bike":false,"name":"Hans-Steger-Ufer","address":null,"spot":true,"number":4890,"booked_bikes":0,"bikes":0,"bikes_available_to_rent":0,"bike_racks":0,"free_racks":0,"special_racks":0,"free_special_racks":0,"maintenance":false,"terminal_type":"free","bike_list":[],"bike_numbers":[],"bike_types":{},"place_type":"0","rack_locks":false},{"uid":10059187,"lat":50.754283,"lng":7.146741,"bike":false,"name":"Vilich Müldorf","address":null,"spot":true,"number":4894,"booked_bikes":0,"bikes":0,"bikes_available_to_rent":0,"bike_racks":0,"free_racks":0,"special_racks":0,"free_special_racks":0,"maintenance":false,"terminal_type":"free","bike_list":[],"bike_numbers":[],"bike_types":{},"place_type":"0","rack_locks":false},{"uid":10059220,"lat":50.71626,"lng":7.041636,"bike":false,"name":"Bahnhof Duisdorf","address":null,"spot":true,"number":4896,"booked_bikes":0,"bikes":0,"bikes_available_to_rent":0,"bike_racks":0,"free_racks":0,"special_racks":0,"free_special_racks":0,"maintenance":false,"terminal_type":"free","bike_list":[],"bike_numbers":[],"bike_types":{},"place_type":"0","rack_locks":false},{"uid":10059244,"lat":50.699567,"lng":7.057251,"bike":false,"name":"Celsiusstraße","address":null,"spot":true,"number":4899,"booked_bikes":0,"bikes":0,"bikes_available_to_rent":0,"bike_racks":0,"free_racks":0,"special_racks":0,"free_special_racks":0,"maintenance":false,"terminal_type":"free","bike_list":[],"bike_numbers":[],"bike_types":{},"place_type":"0","rack_locks":false},{"uid":10059319,"lat":50.691768,"lng":7.148076,"bike":false,"name":"Wurzer Straße","address":null,"spot":true,"number":4970,"booked_bikes":0,"bikes":0,"bikes_available_to_rent":0,"bike_racks":0,"free_racks":0,"special_racks":0,"free_special_racks":0,"maintenance":false,"terminal_type":"free","bike_list":[],"bike_numbers":[],"bike_types":{},"place_type":"0","rack_locks":false},{"uid":10059334,"lat":50.687547,"lng":7.154074,"bike":false,"name":"Haltepunkt Plittersdorfer Straße","address":null,"spot":true,"number":4971,"booked_bikes":0,"bikes":0,"bikes_available_to_rent":0,"bike_racks":0,"free_racks":0,"special_racks":0,"free_special_racks":0,"maintenance":false,"terminal_type":"free","bike_list":[],"bike_numbers":[],"bike_types":{},"place_type":"0","rack_locks":false},{"uid":10059347,"lat":50.683143,"lng":7.159175,"bike":false,"name":"Bahnhof Godesberg","address":null,"spot":true,"number":4973,"booked_bikes":0,"bikes":0,"bikes_available_to_rent":0,"bike_racks":0,"free_racks":0,"special_racks":0,"free_special_racks":0,"maintenance":false,"terminal_type":"free","bike_list":[],"bike_numbers":[],"bike_types":{},"place_type":"0","rack_locks":false},{"uid":10059413,"lat":50.668494,"lng":7.181722,"bike":false,"name":"Bahnhof Mehlem","address":null,"spot":true,"number":4974,"booked_bikes":0,"bikes":1,"bikes_available_to_rent":1,"bike_racks":0,"free_racks":0,"special_racks":0,"free_special_racks":0,"maintenance":false,"terminal_type":"free","bike_list":[{"number":"45279","bike_type":71,"lock_types":["frame_lock"],"active":true,"state":"ok","electric_lock":true,"boardcomputer":7551056880,"pedelec_battery":null,"battery_pack":null}],"bike_numbers":["45279"],"bike_types":{"71":1},"place_type":"0","rack_locks":false},{"uid":10059425,"lat":50.683765,"lng":7.155844,"bike":false,"name":"Koblenzer Straße","address":null,"spot":true,"number":4975,"booked_bikes":0,"bikes":0,"bikes_available_to_rent":0,"bike_racks":0,"free_racks":0,"special_racks":0,"free_special_racks":0,"maintenance":false,"terminal_type":"free","bike_list":[],"bike_numbers":[],"bike_types":{},"place_type":"0","rack_locks":false},{"uid":10059495,"lat":50.758852,"lng":7.047053,"bike":false,"name":"Buschdorf","address":null,"spot":true,"number":4982,"booked_bikes":0,"bikes":0,"bikes_available_to_rent":0,"bike_racks":0,"free_racks":0,"special_racks":0,"free_special_racks":0,"maintenance":false,"terminal_type":"free","bike_list":[],"bike_numbers":[],"bike_types":{},"place_type":"0","rack_locks":false},{"uid":10059545,"lat":50.706816,"lng":7.033889,"bike":false,"name":"Malteser Krankenhaus","address":null,"spot":true,"number":4984,"booked_bikes":0,"bikes":0,"bikes_available_to_rent":0,"bike_racks":0,"free_racks":0,"special_racks":0,"free_special_racks":0,"maintenance":false,"terminal_type":"free","bike_list":[],"bike_numbers":[],"bike_types":{},"place_type":"0","rack_locks":false},{"uid":10059589,"lat":50.69206,"lng":7.064745,"bike":false,"name":"Ückesdorf","address":null,"spot":true,"number":4985,"booked_bikes":0,"bikes":0,"bikes_available_to_rent":0,"bike_racks":0,"free_racks":0,"special_racks":0,"free_special_racks":0,"maintenance":false,"terminal_type":"free","bike_list":[],"bike_numbers":[],"bike_types":{},"place_type":"0","rack_locks":false},{"uid":10059595,"lat":50.678006,"lng":7.070915,"bike":false,"name":"Röttgen","address":null,"spot":true,"number":4986,"booked_bikes":0,"bikes":0,"bikes_available_to_rent":0,"bike_racks":0,"free_racks":0,"special_racks":0,"free_special_racks":0,"maintenance":false,"terminal_type":"free","bike_list":[],"bike_numbers":[],"bike_types":{},"place_type":"0","rack_locks":false},{"uid":10059613,"lat":50.664601,"lng":7.171181,"bike":false,"name":"Lannesdorf Mitte","address":null,"spot":true,"number":4987,"booked_bikes":0,"bikes":0,"bikes_available_to_rent":0,"bike_racks":0,"free_racks":0,"special_racks":0,"free_special_racks":0,"maintenance":false,"terminal_type":"free","bike_list":[],"bike_numbers":[],"bike_types":{},"place_type":"0","rack_locks":false},{"uid":10059620,"lat":50.670497,"lng":7.16116,"bike":false,"name":"Muffendorf Kommende","address":null,"spot":true,"number":4988,"booked_bikes":0,"bikes":0,"bikes_available_to_rent":0,"bike_racks":0,"free_racks":0,"special_racks":0,"free_special_racks":0,"maintenance":false,"terminal_type":"free","bike_list":[],"bike_numbers":[],"bike_types":{},"place_type":"0","rack_locks":false},{"uid":10059626,"lat":50.698048,"lng":7.126812,"bike":false,"name":"Friesdorf Klufterplatz","address":null,"spot":true,"number":4989,"booked_bikes":0,"bikes":0,"bikes_available_to_rent":0,"bike_racks":0,"free_racks":0,"special_racks":0,"free_special_racks":0,"maintenance":false,"terminal_type":"free","bike_list":[],"bike_numbers":[],"bike_types":{},"place_type":"0","rack_locks":false},{"uid":10478976,"lat":50.739942,"lng":7.103106,"bike":false,"name":"SWB Haupteingang","address":null,"spot":true,"number":4972,"booked_bikes":0,"bikes":0,"bikes_available_to_rent":0,"bike_racks":0,"free_racks":0,"special_racks":0,"free_special_racks":0,"maintenance":false,"terminal_type":"free","bike_list":[],"bike_numbers":[],"bike_types":{},"place_type":"0","rack_locks":false},{"uid":10666213,"lat":50.734985,"lng":7.061752,"bike":false,"name":"Endenich Nord/ Auf dem Hügel","address":null,"spot":true,"number":4739,"booked_bikes":0,"bikes":0,"bikes_available_to_rent":0,"bike_racks":0,"free_racks":0,"special_racks":0,"free_special_racks":0,"maintenance":false,"terminal_type":"free","bike_list":[],"bike_numbers":[],"bike_types":{},"place_type":"0","rack_locks":false},{"uid":12528644,"lat":50.704497,"lng":7.112296,"bike":false,"name":"Quirinusplatz","address":null,"spot":true,"number":4780,"booked_bikes":0,"bikes":0,"bikes_available_to_rent":0,"bike_racks":0,"free_racks":0,"special_racks":0,"free_special_racks":0,"maintenance":false,"terminal_type":"free","bike_list":[],"bike_numbers":[],"bike_types":{},"place_type":"0","rack_locks":false},{"uid":12585369,"lat":50.715809,"lng":7.050042,"bike":false,"name":"Rochusstraße","address":null,"spot":true,"number":4897,"booked_bikes":0,"bikes":0,"bikes_available_to_rent":0,"bike_racks":0,"free_racks":0,"special_racks":0,"free_special_racks":0,"maintenance":false,"terminal_type":"free","bike_list":[],"bike_numbers":[],"bike_types":{},"place_type":"0","rack_locks":false},{"uid":16804329,"lat":50.739524,"lng":7.117767,"bike":false,"name":"Konrad-Adenauer-Platz","address":null,"spot":true,"number":4783,"booked_bikes":0,"bikes":0,"bikes_available_to_rent":0,"bike_racks":0,"free_racks":0,"special_racks":0,"free_special_racks":0,"maintenance":false,"terminal_type":"free","bike_list":[],"bike_numbers":[],"bike_types":{},"place_type":"0","rack_locks":false},{"uid":43665831,"lat":50.759227,"lng":7.042495,"bike":true,"name":"BIKE 45165","address":null,"spot":false,"number":0,"booked_bikes":0,"bikes":1,"bikes_available_to_rent":1,"bike_racks":0,"free_racks":0,"special_racks":0,"free_special_racks":0,"maintenance":false,"terminal_type":"","bike_list":[{"number":"45165","bike_type":71,"lock_types":["frame_lock"],"active":true,"state":"ok","electric_lock":true,"boardcomputer":7551019766,"pedelec_battery":null,"battery_pack":null}],"bike_numbers":["45165"],"bike_types":{"71":1},"place_type":"12","rack_locks":false},{"uid":43666147,"lat":50.75912,"lng":7.042555,"bike":true,"name":"BIKE 45237","address":null,"spot":false,"number":0,"booked_bikes":0,"bikes":1,"bikes_available_to_rent":1,"bike_racks":0,"free_racks":0,"special_racks":0,"free_special_racks":0,"maintenance":false,"terminal_type":"","bike_list":[{"number":"45237","bike_type":71,"lock_types":["frame_lock"],"active":true,"state":"ok","electric_lock":true,"boardcomputer":7551011955,"pedelec_battery":null,"battery_pack":null}],"bike_numbers":["45237"],"bike_types":{"71":1},"place_type":"12","rack_locks":false},{"uid":43680462,"lat":50.750067,"lng":7.088982,"bike":true,"name":"BIKE 44951","address":null,"spot":false,"number":0,"booked_bikes":0,"bikes":1,"bikes_available_to_rent":1,"bike_racks":0,"free_racks":0,"special_racks":0,"free_special_racks":0,"maintenance":false,"terminal_type":"","bike_list":[{"number":"44951","bike_type":71,"lock_types":["frame_lock"],"active":true,"state":"ok","electric_lock":true,"boardcomputer":7551015039,"pedelec_battery":null,"battery_pack":null}],"bike_numbers":["44951"],"bike_types":{"71":1},"place_type":"12","rack_locks":false},{"uid":43682287,"lat":50.696787,"lng":7.078995,"bike":true,"name":"BIKE 44681","address":null,"spot":false,"number":0,"booked_bikes":0,"bikes":1,"bikes_available_to_rent":1,"bike_racks":0,"free_racks":0,"special_racks":0,"free_special_racks":0,"maintenance":false,"terminal_type":"","bike_list":[{"number":"44681","bike_type":71,"lock_types":["frame_lock"],"active":true,"state":"ok","electric_lock":true,"boardcomputer":7551058555,"pedelec_battery":null,"battery_pack":null}],"bike_numbers":["44681"],"bike_types":{"71":1},"place_type":"12","rack_locks":false},{"uid":43686483,"lat":50.734196,"lng":7.128561,"bike":true,"name":"BIKE 45313","address":null,"spot":false,"number":0,"booked_bikes":0,"bikes":1,"bikes_available_to_rent":1,"bike_racks":0,"free_racks":0,"special_racks":0,"free_special_racks":0,"maintenance":false,"terminal_type":"","bike_list":[{"number":"45313","bike_type":71,"lock_types":["frame_lock"],"active":true,"state":"ok","electric_lock":true,"boardcomputer":7551057145,"pedelec_battery":null,"battery_pack":null}],"bike_numbers":["45313"],"bike_types":{"71":1},"place_type":"12","rack_locks":false},{"uid":43698371,"lat":50.744311,"lng":7.159603,"bike":true,"name":"BIKE 45008","address":null,"spot":false,"number":0,"booked_bikes":0,"bikes":1,"bikes_available_to_rent":1,"bike_racks":0,"free_racks":0,"special_racks":0,"free_special_racks":0,"maintenance":false,"terminal_type":"","bike_list":[{"number":"45008","bike_type":71,"lock_types":["frame_lock"],"active":true,"state":"ok","electric_lock":true,"boardcomputer":7551012265,"pedelec_battery":null,"battery_pack":null}],"bike_numbers":["45008"],"bike_types":{"71":1},"place_type":"12","rack_locks":false},{"uid":43705942,"lat":50.760111,"lng":7.067674,"bike":true,"name":"BIKE 44988","address":null,"spot":false,"number":0,"booked_bikes":0,"bikes":1,"bikes_available_to_rent":1,"bike_racks":0,"free_racks":0,"special_racks":0,"free_special_racks":0,"maintenance":false,"terminal_type":"","bike_list":[{"number":"44988","bike_type":71,"lock_types":["frame_lock"],"active":true,"state":"ok","electric_lock":true,"boardcomputer":7551025627,"pedelec_battery":null,"battery_pack":null}],"bike_numbers":["44988"],"bike_types":{"71":1},"place_type":"12","rack_locks":false},{"uid":43708268,"lat":50.711449,"lng":7.180616,"bike":true,"name":"BIKE 44881","address":null,"spot":false,"number":0,"booked_bikes":0,"bikes":1,"bikes_available_to_rent":1,"bike_racks":0,"free_racks":0,"special_racks":0,"free_special_racks":0,"maintenance":false,"terminal_type":"","bike_list":[{"number":"44881","bike_type":71,"lock_types":["frame_lock"],"active":true,"state":"ok","electric_lock":true,"boardcomputer":7551003282,"pedelec_battery":null,"battery_pack":null}],"bike_numbers":["44881"],"bike_types":{"71":1},"place_type":"12","rack_locks":false},{"uid":43709606,"lat":50.67968,"lng":7.141821,"bike":true,"name":"BIKE 45053","address":null,"spot":false,"number":0,"booked_bikes":0,"bikes":1,"bikes_available_to_rent":1,"bike_racks":0,"free_racks":0,"special_racks":0,"free_special_racks":0,"maintenance":false,"terminal_type":"","bike_list":[{"number":"45053","bike_type":71,"lock_types":["frame_lock"],"active":true,"state":"ok","electric_lock":true,"boardcomputer":7551013232,"pedelec_battery":null,"battery_pack":null}],"bike_numbers":["45053"],"bike_types":{"71":1},"place_type":"12","rack_locks":false},{"uid":43712551,"lat":50.668436,"lng":7.165795,"bike":true,"name":"BIKE 45394","address":null,"spot":false,"number":0,"booked_bikes":0,"bikes":1,"bikes_available_to_rent":1,"bike_racks":0,"free_racks":0,"special_racks":0,"free_special_racks":0,"maintenance":false,"terminal_type":"","bike_list":[{"number":"45394","bike_type":71,"lock_types":["frame_lock"],"active":true,"state":"ok","electric_lock":true,"boardcomputer":7551057084,"pedelec_battery":null,"battery_pack":null}],"bike_numbers":["45394"],"bike_types":{"71":1},"place_type":"12","rack_locks":false},{"uid":43712677,"lat":50.749569,"lng":7.122966,"bike":true,"name":"BIKE 45040","address":null,"spot":false,"number":0,"booked_bikes":0,"bikes":1,"bikes_available_to_rent":1,"bike_racks":0,"free_racks":0,"special_racks":0,"free_special_racks":0,"maintenance":false,"terminal_type":"","bike_list":[{"number":"45040","bike_type":71,"lock_types":["frame_lock"],"active":true,"state":"ok","electric_lock":true,"boardcomputer":7551004725,"pedelec_battery":null,"battery_pack":null}],"bike_numbers":["45040"],"bike_types":{"71":1},"place_type":"12","rack_locks":false},{"uid":43714057,"lat":50.727116,"lng":7.140231,"bike":true,"name":"BIKE 44605","address":null,"spot":false,"number":0,"booked_bikes":0,"bikes":1,"bikes_available_to_rent":1,"bike_racks":0,"free_racks":0,"special_racks":0,"free_special_racks":0,"maintenance":false,"terminal_type":"","bike_list":[{"number":"44605","bike_type":71,"lock_types":["frame_lock"],"active":true,"state":"ok","electric_lock":true,"boardcomputer":7551063931,"pedelec_battery":null,"battery_pack":null}],"bike_numbers":["44605"],"bike_types":{"71":1},"place_type":"12","rack_locks":false},{"uid":43715008,"lat":50.758502,"lng":7.084936,"bike":true,"name":"BIKE 44697","address":null,"spot":false,"number":0,"booked_bikes":0,"bikes":1,"bikes_available_to_rent":1,"bike_racks":0,"free_racks":0,"special_racks":0,"free_special_racks":0,"maintenance":false,"terminal_type":"","bike_list":[{"number":"44697","bike_type":71,"lock_types":["frame_lock"],"active":true,"state":"ok","electric_lock":true,"boardcomputer":7551058066,"pedelec_battery":null,"battery_pack":null}],"bike_numbers":["44697"],"bike_types":{"71":1},"place_type":"12","rack_locks":false},{"uid":43716152,"lat":50.689249,"lng":7.142137,"bike":true,"name":"BIKE 45373","address":null,"spot":false,"number":0,"booked_bikes":0,"bikes":1,"bikes_available_to_rent":1,"bike_racks":0,"free_racks":0,"special_racks":0,"free_special_racks":0,"maintenance":false,"terminal_type":"","bike_list":[{"number":"45373","bike_type":71,"lock_types":["frame_lock"],"active":true,"state":"ok","electric_lock":true,"boardcomputer":7551025414,"pedelec_battery":null,"battery_pack":null}],"bike_numbers":["45373"],"bike_types":{"71":1},"place_type":"12","rack_locks":false},{"uid":43717777,"lat":50.713533,"lng":7.16285,"bike":true,"name":"BIKE 44777","address":null,"spot":false,"number":0,"booked_bikes":0,"bikes":1,"bikes_available_to_rent":1,"bike_racks":0,"free_racks":0,"special_racks":0,"free_special_racks":0,"maintenance":false,"terminal_type":"","bike_list":[{"number":"44777","bike_type":71,"lock_types":["frame_lock"],"active":true,"state":"ok","electric_lock":true,"boardcomputer":7551057892,"pedelec_battery":null,"battery_pack":null}],"bike_numbers":["44777"],"bike_types":{"71":1},"place_type":"12","rack_locks":false},{"uid":43718308,"lat":50.757413,"lng":7.055817,"bike":true,"name":"BIKE 45104","address":null,"spot":false,"number":0,"booked_bikes":0,"bikes":1,"bikes_available_to_rent":1,"bike_racks":0,"free_racks":0,"special_racks":0,"free_special_racks":0,"maintenance":false,"terminal_type":"","bike_list":[{"number":"45104","bike_type":71,"lock_types":["frame_lock"],"active":true,"state":"ok","electric_lock":true,"boardcomputer":7551013272,"pedelec_battery":null,"battery_pack":null}],"bike_numbers":["45104"],"bike_types":{"71":1},"place_type":"12","rack_locks":false},{"uid":43721940,"lat":50.718458,"lng":7.057887,"bike":true,"name":"BIKE 45432","address":null,"spot":false,"number":0,"booked_bikes":0,"bikes":1,"bikes_available_to_rent":1,"bike_racks":0,"free_racks":0,"special_racks":0,"free_special_racks":0,"maintenance":false,"terminal_type":"","bike_list":[{"number":"45432","bike_type":71,"lock_types":["frame_lock"],"active":true,"state":"ok","electric_lock":true,"boardcomputer":7551047843,"pedelec_battery":null,"battery_pack":null}],"bike_numbers":["45432"],"bike_types":{"71":1},"place_type":"12","rack_locks":false},{"uid":43724705,"lat":50.756964,"lng":7.073883,"bike":true,"name":"BIKE 45074","address":null,"spot":false,"number":0,"booked_bikes":0,"bikes":1,"bikes_available_to_rent":1,"bike_racks":0,"free_racks":0,"special_racks":0,"free_special_racks":0,"maintenance":false,"terminal_type":"","bike_list":[{"number":"45074","bike_type":71,"lock_types":["frame_lock"],"active":true,"state":"ok","electric_lock":true,"boardcomputer":7551055956,"pedelec_battery":null,"battery_pack":null}],"bike_numbers":["45074"],"bike_types":{"71":1},"place_type":"12","rack_locks":false},{"uid":43724825,"lat":50.714316,"lng":7.071127,"bike":true,"name":"BIKE 44738","address":null,"spot":false,"number":0,"booked_bikes":0,"bikes":1,"bikes_available_to_rent":1,"bike_racks":0,"free_racks":0,"special_racks":0,"free_special_racks":0,"maintenance":false,"terminal_type":"","bike_list":[{"number":"44738","bike_type":71,"lock_types":["frame_lock"],"active":true,"state":"ok","electric_lock":true,"boardcomputer":7551003031,"pedelec_battery":null,"battery_pack":null}],"bike_numbers":["44738"],"bike_types":{"71":1},"place_type":"12","rack_locks":false},{"uid":43725416,"lat":50.760587,"lng":7.07171,"bike":true,"name":"BIKE 44732","address":null,"spot":false,"number":0,"booked_bikes":0,"bikes":1,"bikes_available_to_rent":1,"bike_racks":0,"free_racks":0,"special_racks":0,"free_special_racks":0,"maintenance":false,"terminal_type":"","bike_list":[{"number":"44732","bike_type":71,"lock_types":["frame_lock"],"active":true,"state":"ok","electric_lock":true,"boardcomputer":7551004823,"pedelec_battery":null,"battery_pack":null}],"bike_numbers":["44732"],"bike_types":{"71":1},"place_type":"12","rack_locks":false},{"uid":43725727,"lat":50.713631,"lng":7.038348,"bike":true,"name":"BIKE 45048","address":null,"spot":false,"number":0,"booked_bikes":0,"bikes":1,"bikes_available_to_rent":1,"bike_racks":0,"free_racks":0,"special_racks":0,"free_special_racks":0,"maintenance":false,"terminal_type":"","bike_list":[{"number":"45048","bike_type":71,"lock_types":["frame_lock"],"active":true,"state":"ok","electric_lock":true,"boardcomputer":7551063950,"pedelec_battery":null,"battery_pack":null}],"bike_numbers":["45048"],"bike_types":{"71":1},"place_type":"12","rack_locks":false},{"uid":43726198,"lat":50.697542,"lng":7.121687,"bike":true,"name":"BIKE 44551","address":null,"spot":false,"number":0,"booked_bikes":0,"bikes":1,"bikes_available_to_rent":1,"bike_racks":0,"free_racks":0,"special_racks":0,"free_special_racks":0,"maintenance":false,"terminal_type":"","bike_list":[{"number":"44551","bike_type":71,"lock_types":["frame_lock"],"active":true,"state":"ok","electric_lock":true,"boardcomputer":7551058318,"pedelec_battery":null,"battery_pack":null}],"bike_numbers":["44551"],"bike_types":{"71":1},"place_type":"12","rack_locks":false},{"uid":43726248,"lat":50.753151,"lng":7.143245,"bike":true,"name":"BIKE 45108","address":null,"spot":false,"number":0,"booked_bikes":0,"bikes":1,"bikes_available_to_rent":1,"bike_racks":0,"free_racks":0,"special_racks":0,"free_special_racks":0,"maintenance":false,"terminal_type":"","bike_list":[{"number":"45108","bike_type":71,"lock_types":["frame_lock"],"active":true,"state":"ok","electric_lock":true,"boardcomputer":7551002613,"pedelec_battery":null,"battery_pack":null}],"bike_numbers":["45108"],"bike_types":{"71":1},"place_type":"12","rack_locks":false},{"uid":43728007,"lat":50.679844,"lng":7.164231,"bike":true,"name":"BIKE 45190","address":null,"spot":false,"number":0,"booked_bikes":0,"bikes":1,"bikes_available_to_rent":1,"bike_racks":0,"free_racks":0,"special_racks":0,"free_special_racks":0,"maintenance":false,"terminal_type":"","bike_list":[{"number":"45190","bike_type":71,"lock_types":["frame_lock"],"active":true,"state":"ok","electric_lock":true,"boardcomputer":7551004387,"pedelec_battery":null,"battery_pack":null}],"bike_numbers":["45190"],"bike_types":{"71":1},"place_type":"12","rack_locks":false},{"uid":43728122,"lat":50.745956,"lng":7.122198,"bike":true,"name":"BIKE 44654","address":null,"spot":false,"number":0,"booked_bikes":0,"bikes":1,"bikes_available_to_rent":1,"bike_racks":0,"free_racks":0,"special_racks":0,"free_special_racks":0,"maintenance":false,"terminal_type":"","bike_list":[{"number":"44654","bike_type":71,"lock_types":["frame_lock"],"active":true,"state":"ok","electric_lock":true,"boardcomputer":7551004612,"pedelec_battery":null,"battery_pack":null}],"bike_numbers":["44654"],"bike_types":{"71":1},"place_type":"12","rack_locks":false},{"uid":43728574,"lat":50.701889,"lng":7.133662,"bike":true,"name":"BIKE 45491","address":null,"spot":false,"number":0,"booked_bikes":0,"bikes":1,"bikes_available_to_rent":1,"bike_racks":0,"free_racks":0,"special_racks":0,"free_special_racks":0,"maintenance":false,"terminal_type":"","bike_list":[{"number":"45491","bike_type":71,"lock_types":["frame_lock"],"active":true,"state":"ok","electric_lock":true,"boardcomputer":7551036823,"pedelec_battery":null,"battery_pack":null}],"bike_numbers":["45491"],"bike_types":{"71":1},"place_type":"12","rack_locks":false},{"uid":43729529,"lat":50.722044,"lng":7.055357,"bike":true,"name":"BIKE 45005","address":null,"spot":false,"number":0,"booked_bikes":0,"bikes":1,"bikes_available_to_rent":1,"bike_racks":0,"free_racks":0,"special_racks":0,"free_special_racks":0,"maintenance":false,"terminal_type":"","bike_list":[{"number":"45005","bike_type":71,"lock_types":["frame_lock"],"active":true,"state":"ok","electric_lock":true,"boardcomputer":7551058331,"pedelec_battery":null,"battery_pack":null}],"bike_numbers":["45005"],"bike_types":{"71":1},"place_type":"12","rack_locks":false},{"uid":43729544,"lat":50.719271,"lng":7.056993,"bike":true,"name":"BIKE 44575","address":null,"spot":false,"number":0,"booked_bikes":0,"bikes":1,"bikes_available_to_rent":1,"bike_racks":0,"free_racks":0,"special_racks":0,"free_special_racks":0,"maintenance":false,"terminal_type":"","bike_list":[{"number":"44575","bike_type":71,"lock_types":["frame_lock"],"active":true,"state":"ok","electric_lock":true,"boardcomputer":7551047853,"pedelec_battery":null,"battery_pack":null}],"bike_numbers":["44575"],"bike_types":{"71":1},"place_type":"12","rack_locks":false},{"uid":43730297,"lat":50.75284,"lng":7.098122,"bike":true,"name":"BIKE 45232","address":null,"spot":false,"number":0,"booked_bikes":0,"bikes":1,"bikes_available_to_rent":1,"bike_racks":0,"free_racks":0,"special_racks":0,"free_special_racks":0,"maintenance":false,"terminal_type":"","bike_list":[{"number":"45232","bike_type":71,"lock_types":["frame_lock"],"active":true,"state":"ok","electric_lock":true,"boardcomputer":7551058065,"pedelec_battery":null,"battery_pack":null}],"bike_numbers":["45232"],"bike_types":{"71":1},"place_type":"12","rack_locks":false},{"uid":43730664,"lat":50.740893,"lng":7.124029,"bike":true,"name":"BIKE 45436","address":null,"spot":false,"number":0,"booked_bikes":0,"bikes":1,"bikes_available_to_rent":1,"bike_racks":0,"free_racks":0,"special_racks":0,"free_special_racks":0,"maintenance":false,"terminal_type":"","bike_list":[{"number":"45436","bike_type":71,"lock_types":["frame_lock"],"active":true,"state":"ok","electric_lock":true,"boardcomputer":7551020384,"pedelec_battery":null,"battery_pack":null}],"bike_numbers":["45436"],"bike_types":{"71":1},"place_type":"12","rack_locks":false},{"uid":43733379,"lat":50.698911,"lng":7.123372,"bike":true,"name":"BIKE 44579","address":null,"spot":false,"number":0,"booked_bikes":0,"bikes":1,"bikes_available_to_rent":1,"bike_racks":0,"free_racks":0,"special_racks":0,"free_special_racks":0,"maintenance":false,"terminal_type":"","bike_list":[{"number":"44579","bike_type":71,"lock_types":["frame_lock"],"active":true,"state":"ok","electric_lock":true,"boardcomputer":7551004898,"pedelec_battery":null,"battery_pack":null}],"bike_numbers":["44579"],"bike_types":{"71":1},"place_type":"12","rack_locks":false},{"uid":43733814,"lat":50.730169,"lng":7.125634,"bike":true,"name":"BIKE 45352","address":null,"spot":false,"number":0,"booked_bikes":0,"bikes":1,"bikes_available_to_rent":1,"bike_racks":0,"free_racks":0,"special_racks":0,"free_special_racks":0,"maintenance":false,"terminal_type":"","bike_list":[{"number":"45352","bike_type":150,"lock_types":["frame_lock"],"active":true,"state":"ok","electric_lock":true,"boardcomputer":7551054042,"pedelec_battery":null,"battery_pack":null}],"bike_numbers":["45352"],"bike_types":{"150":1},"place_type":"12","rack_locks":false},{"uid":43733827,"lat":50.742653,"lng":7.123603,"bike":true,"name":"BIKE 44646","address":null,"spot":false,"number":0,"booked_bikes":0,"bikes":1,"bikes_available_to_rent":1,"bike_racks":0,"free_racks":0,"special_racks":0,"free_special_racks":0,"maintenance":false,"terminal_type":"","bike_list":[{"number":"44646","bike_type":71,"lock_types":["frame_lock"],"active":true,"state":"ok","electric_lock":true,"boardcomputer":7551005746,"pedelec_battery":null,"battery_pack":null}],"bike_numbers":["44646"],"bike_types":{"71":1},"place_type":"12","rack_locks":false},{"uid":43733931,"lat":50.756511,"lng":7.07754,"bike":true,"name":"BIKE 44675","address":null,"spot":false,"number":0,"booked_bikes":0,"bikes":1,"bikes_available_to_rent":1,"bike_racks":0,"free_racks":0,"special_racks":0,"free_special_racks":0,"maintenance":false,"terminal_type":"","bike_list":[{"number":"44675","bike_type":71,"lock_types":["frame_lock"],"active":true,"state":"ok","electric_lock":true,"boardcomputer":7551004655,"pedelec_battery":null,"battery_pack":null}],"bike_numbers":["44675"],"bike_types":{"71":1},"place_type":"12","rack_locks":false},{"uid":43733938,"lat":50.745196,"lng":7.089074,"bike":true,"name":"BIKE 45461","address":null,"spot":false,"number":0,"booked_bikes":0,"bikes":1,"bikes_available_to_rent":1,"bike_racks":0,"free_racks":0,"special_racks":0,"free_special_racks":0,"maintenance":false,"terminal_type":"","bike_list":[{"number":"45461","bike_type":71,"lock_types":["frame_lock"],"active":true,"state":"ok","electric_lock":true,"boardcomputer":7551036699,"pedelec_battery":null,"battery_pack":null}],"bike_numbers":["45461"],"bike_types":{"71":1},"place_type":"12","rack_locks":false},{"uid":43734088,"lat":50.739511,"lng":7.055747,"bike":true,"name":"BIKE 44932","address":null,"spot":false,"number":0,"booked_bikes":0,"bikes":1,"bikes_available_to_rent":1,"bike_racks":0,"free_racks":0,"special_racks":0,"free_special_racks":0,"maintenance":false,"terminal_type":"","bike_list":[{"number":"44932","bike_type":71,"lock_types":["frame_lock"],"active":true,"state":"ok","electric_lock":true,"boardcomputer":7551006817,"pedelec_battery":null,"battery_pack":null}],"bike_numbers":["44932"],"bike_types":{"71":1},"place_type":"12","rack_locks":false},{"uid":43735756,"lat":50.716493,"lng":7.059077,"bike":true,"name":"BIKE 45175","address":null,"spot":false,"number":0,"booked_bikes":0,"bikes":1,"bikes_available_to_rent":1,"bike_racks":0,"free_racks":0,"special_racks":0,"free_special_racks":0,"maintenance":false,"terminal_type":"","bike_list":[{"number":"45175","bike_type":71,"lock_types":["frame_lock"],"active":true,"state":"ok","electric_lock":true,"boardcomputer":7551017745,"pedelec_battery":null,"battery_pack":null}],"bike_numbers":["45175"],"bike_types":{"71":1},"place_type":"12","rack_locks":false},{"uid":43736264,"lat":50.665507,"lng":7.181501,"bike":true,"name":"BIKE 44943","address":null,"spot":false,"number":0,"booked_bikes":0,"bikes":1,"bikes_available_to_rent":1,"bike_racks":0,"free_racks":0,"special_racks":0,"free_special_racks":0,"maintenance":false,"terminal_type":"","bike_list":[{"number":"44943","bike_type":71,"lock_types":["frame_lock"],"active":true,"state":"ok","electric_lock":true,"boardcomputer":7551018130,"pedelec_battery":null,"battery_pack":null}],"bike_numbers":["44943"],"bike_types":{"71":1},"place_type":"12","rack_locks":false},{"uid":43736270,"lat":50.735556,"lng":7.127402,"bike":true,"name":"BIKE 44582","address":null,"spot":false,"number":0,"booked_bikes":0,"bikes":1,"bikes_available_to_rent":1,"bike_racks":0,"free_racks":0,"special_racks":0,"free_special_racks":0,"maintenance":false,"terminal_type":"","bike_list":[{"number":"44582","bike_type":71,"lock_types":["frame_lock"],"active":true,"state":"ok","electric_lock":true,"boardcomputer":7551004920,"pedelec_battery":null,"battery_pack":null}],"bike_numbers":["44582"],"bike_types":{"71":1},"place_type":"12","rack_locks":false},{"uid":43736328,"lat":50.714316,"lng":7.118043,"bike":true,"name":"BIKE 45336","address":null,"spot":false,"number":0,"booked_bikes":0,"bikes":1,"bikes_available_to_rent":1,"bike_racks":0,"free_racks":0,"special_racks":0,"free_special_racks":0,"maintenance":false,"terminal_type":"","bike_list":[{"number":"45336","bike_type":71,"lock_types":["frame_lock"],"active":true,"state":"ok","electric_lock":true,"boardcomputer":7551013662,"pedelec_battery":null,"battery_pack":null}],"bike_numbers":["45336"],"bike_types":{"71":1},"place_type":"12","rack_locks":false},{"uid":43736354,"lat":50.724547,"lng":7.135302,"bike":true,"name":"BIKE 45398","address":null,"spot":false,"number":0,"booked_bikes":0,"bikes":1,"bikes_available_to_rent":1,"bike_racks":0,"free_racks":0,"special_racks":0,"free_special_racks":0,"maintenance":false,"terminal_type":"","bike_list":[{"number":"45398","bike_type":71,"lock_types":["frame_lock"],"active":true,"state":"ok","electric_lock":true,"boardcomputer":7551057921,"pedelec_battery":null,"battery_pack":null}],"bike_numbers":["45398"],"bike_types":{"71":1},"place_type":"12","rack_locks":false},{"uid":43736370,"lat":50.668627,"lng":7.178315,"bike":true,"name":"BIKE 44749","address":null,"spot":false,"number":0,"booked_bikes":0,"bikes":1,"bikes_available_to_rent":1,"bike_racks":0,"free_racks":0,"special_racks":0,"free_special_racks":0,"maintenance":false,"terminal_type":"","bike_list":[{"number":"44749","bike_type":71,"lock_types":["frame_lock"],"active":true,"state":"ok","electric_lock":true,"boardcomputer":7551013058,"pedelec_battery":null,"battery_pack":null}],"bike_numbers":["44749"],"bike_types":{"71":1},"place_type":"12","rack_locks":false},{"uid":43736863,"lat":50.682978,"lng":7.155472,"bike":true,"name":"BIKE 45009","address":null,"spot":false,"number":0,"booked_bikes":0,"bikes":1,"bikes_available_to_rent":1,"bike_racks":0,"free_racks":0,"special_racks":0,"free_special_racks":0,"maintenance":false,"terminal_type":"","bike_list":[{"number":"45009","bike_type":71,"lock_types":["frame_lock"],"active":true,"state":"ok","electric_lock":true,"boardcomputer":7551012297,"pedelec_battery":null,"battery_pack":null}],"bike_numbers":["45009"],"bike_types":{"71":1},"place_type":"12","rack_locks":false},{"uid":43737174,"lat":50.731493,"lng":7.124217,"bike":true,"name":"BIKE 45375","address":null,"spot":false,"number":0,"booked_bikes":0,"bikes":1,"bikes_available_to_rent":1,"bike_racks":0,"free_racks":0,"special_racks":0,"free_special_racks":0,"maintenance":false,"terminal_type":"","bike_list":[{"number":"45375","bike_type":71,"lock_types":["frame_lock"],"active":true,"state":"ok","electric_lock":true,"boardcomputer":7551018635,"pedelec_battery":null,"battery_pack":null}],"bike_numbers":["45375"],"bike_types":{"71":1},"place_type":"12","rack_locks":false},{"uid":43737362,"lat":50.752222,"lng":7.062347,"bike":true,"name":"BIKE 45129","address":null,"spot":false,"number":0,"booked_bikes":0,"bikes":1,"bikes_available_to_rent":1,"bike_racks":0,"free_racks":0,"special_racks":0,"free_special_racks":0,"maintenance":false,"terminal_type":"","bike_list":[{"number":"45129","bike_type":71,"lock_types":["frame_lock"],"active":true,"state":"ok","electric_lock":true,"boardcomputer":7551013770,"pedelec_battery":null,"battery_pack":null}],"bike_numbers":["45129"],"bike_types":{"71":1},"place_type":"12","rack_locks":false},{"uid":43737523,"lat":50.710902,"lng":7.124873,"bike":true,"name":"BIKE 45012","address":null,"spot":false,"number":0,"booked_bikes":0,"bikes":1,"bikes_available_to_rent":1,"bike_racks":0,"free_racks":0,"special_racks":0,"free_special_racks":0,"maintenance":false,"terminal_type":"","bike_list":[{"number":"45012","bike_type":71,"lock_types":["frame_lock"],"active":true,"state":"ok","electric_lock":true,"boardcomputer":7551058068,"pedelec_battery":null,"battery_pack":null}],"bike_numbers":["45012"],"bike_types":{"71":1},"place_type":"12","rack_locks":false},{"uid":43737920,"lat":50.750716,"lng":7.113487,"bike":true,"name":"BIKE 45438","address":null,"spot":false,"number":0,"booked_bikes":0,"bikes":1,"bikes_available_to_rent":1,"bike_racks":0,"free_racks":0,"special_racks":0,"free_special_racks":0,"maintenance":false,"terminal_type":"","bike_list":[{"number":"45438","bike_type":71,"lock_types":["frame_lock"],"active":true,"state":"ok","electric_lock":true,"boardcomputer":7551013403,"pedelec_battery":null,"battery_pack":null}],"bike_numbers":["45438"],"bike_types":{"71":1},"place_type":"12","rack_locks":false},{"uid":43738190,"lat":50.759578,"lng":7.056926,"bike":true,"name":"BIKE 45524","address":null,"spot":false,"number":0,"booked_bikes":0,"bikes":1,"bikes_available_to_rent":1,"bike_racks":0,"free_racks":0,"special_racks":0,"free_special_racks":0,"maintenance":false,"terminal_type":"","bike_list":[{"number":"45524","bike_type":71,"lock_types":["frame_lock"],"active":true,"state":"ok","electric_lock":true,"boardcomputer":7551006484,"pedelec_battery":null,"battery_pack":null}],"bike_numbers":["45524"],"bike_types":{"71":1},"place_type":"12","rack_locks":false},{"uid":43738279,"lat":50.664129,"lng":7.187258,"bike":true,"name":"BIKE 44774","address":null,"spot":false,"number":0,"booked_bikes":0,"bikes":1,"bikes_available_to_rent":1,"bike_racks":0,"free_racks":0,"special_racks":0,"free_special_racks":0,"maintenance":false,"terminal_type":"","bike_list":[{"number":"44774","bike_type":71,"lock_types":["frame_lock"],"active":true,"state":"ok","electric_lock":true,"boardcomputer":7551004126,"pedelec_battery":null,"battery_pack":null}],"bike_numbers":["44774"],"bike_types":{"71":1},"place_type":"12","rack_locks":false},{"uid":43738403,"lat":50.761044,"lng":7.083741,"bike":true,"name":"BIKE 45495","address":null,"spot":false,"number":0,"booked_bikes":0,"bikes":1,"bikes_available_to_rent":1,"bike_racks":0,"free_racks":0,"special_racks":0,"free_special_racks":0,"maintenance":false,"terminal_type":"","bike_list":[{"number":"45495","bike_type":71,"lock_types":["frame_lock"],"active":true,"state":"ok","electric_lock":true,"boardcomputer":7551057135,"pedelec_battery":null,"battery_pack":null}],"bike_numbers":["45495"],"bike_types":{"71":1},"place_type":"12","rack_locks":false},{"uid":43738414,"lat":50.756902,"lng":7.072472,"bike":true,"name":"BIKE 45133","address":null,"spot":false,"number":0,"booked_bikes":0,"bikes":1,"bikes_available_to_rent":1,"bike_racks":0,"free_racks":0,"special_racks":0,"free_special_racks":0,"maintenance":false,"terminal_type":"","bike_list":[{"number":"45133","bike_type":71,"lock_types":["frame_lock"],"active":true,"state":"ok","electric_lock":true,"boardcomputer":7551020371,"pedelec_battery":null,"battery_pack":null}],"bike_numbers":["45133"],"bike_types":{"71":1},"place_type":"12","rack_locks":false},{"uid":43739094,"lat":50.732404,"lng":7.097693,"bike":true,"name":"BIKE 45242","address":null,"spot":false,"number":0,"booked_bikes":0,"bikes":1,"bikes_available_to_rent":1,"bike_racks":0,"free_racks":0,"special_racks":0,"free_special_racks":0,"maintenance":false,"terminal_type":"","bike_list":[{"number":"45242","bike_type":71,"lock_types":["frame_lock"],"active":true,"state":"ok","electric_lock":true,"boardcomputer":7551012235,"pedelec_battery":null,"battery_pack":null}],"bike_numbers":["45242"],"bike_types":{"71":1},"place_type":"12","rack_locks":false},{"uid":43739116,"lat":50.733204,"lng":7.0616,"bike":true,"name":"BIKE 45502","address":null,"spot":false,"number":0,"booked_bikes":0,"bikes":1,"bikes_available_to_rent":1,"bike_racks":0,"free_racks":0,"special_racks":0,"free_special_racks":0,"maintenance":false,"terminal_type":"","bike_list":[{"number":"45502","bike_type":71,"lock_types":["frame_lock"],"active":true,"state":"ok","electric_lock":true,"boardcomputer":7551004515,"pedelec_battery":null,"battery_pack":null}],"bike_numbers":["45502"],"bike_types":{"71":1},"place_type":"12","rack_locks":false},{"uid":43739217,"lat":50.749498,"lng":7.083663,"bike":true,"name":"BIKE 44987","address":null,"spot":false,"number":0,"booked_bikes":0,"bikes":1,"bikes_available_to_rent":1,"bike_racks":0,"free_racks":0,"special_racks":0,"free_special_racks":0,"maintenance":false,"terminal_type":"","bike_list":[{"number":"44987","bike_type":71,"lock_types":["frame_lock"],"active":true,"state":"ok","electric_lock":true,"boardcomputer":7551004365,"pedelec_battery":null,"battery_pack":null}],"bike_numbers":["44987"],"bike_types":{"71":1},"place_type":"12","rack_locks":false},{"uid":43739428,"lat":50.745542,"lng":7.092402,"bike":true,"name":"BIKE 45034","address":null,"spot":false,"number":0,"booked_bikes":0,"bikes":1,"bikes_available_to_rent":1,"bike_racks":0,"free_racks":0,"special_racks":0,"free_special_racks":0,"maintenance":false,"terminal_type":"","bike_list":[{"number":"45034","bike_type":71,"lock_types":["frame_lock"],"active":true,"state":"ok","electric_lock":true,"boardcomputer":7551013049,"pedelec_battery":null,"battery_pack":null}],"bike_numbers":["45034"],"bike_types":{"71":1},"place_type":"12","rack_locks":false},{"uid":43739484,"lat":50.736564,"lng":7.091962,"bike":true,"name":"BIKE 44799","address":null,"spot":false,"number":0,"booked_bikes":0,"bikes":1,"bikes_available_to_rent":1,"bike_racks":0,"free_racks":0,"special_racks":0,"free_special_racks":0,"maintenance":false,"terminal_type":"","bike_list":[{"number":"44799","bike_type":71,"lock_types":["frame_lock"],"active":true,"state":"ok","electric_lock":true,"boardcomputer":7551057895,"pedelec_battery":null,"battery_pack":null}],"bike_numbers":["44799"],"bike_types":{"71":1},"place_type":"12","rack_locks":false},{"uid":43740262,"lat":50.749951,"lng":7.085905,"bike":true,"name":"BIKE 45310","address":null,"spot":false,"number":0,"booked_bikes":0,"bikes":1,"bikes_available_to_rent":1,"bike_racks":0,"free_racks":0,"special_racks":0,"free_special_racks":0,"maintenance":false,"terminal_type":"","bike_list":[{"number":"45310","bike_type":71,"lock_types":["frame_lock"],"active":true,"state":"ok","electric_lock":true,"boardcomputer":7551014381,"pedelec_battery":null,"battery_pack":null}],"bike_numbers":["45310"],"bike_types":{"71":1},"place_type":"12","rack_locks":false},{"uid":43740619,"lat":50.669378,"lng":7.165397,"bike":true,"name":"BIKE 44602","address":null,"spot":false,"number":0,"booked_bikes":0,"bikes":1,"bikes_available_to_rent":1,"bike_racks":0,"free_racks":0,"special_racks":0,"free_special_racks":0,"maintenance":false,"terminal_type":"","bike_list":[{"number":"44602","bike_type":71,"lock_types":["frame_lock"],"active":true,"state":"ok","electric_lock":true,"boardcomputer":7551058653,"pedelec_battery":null,"battery_pack":null}],"bike_numbers":["44602"],"bike_types":{"71":1},"place_type":"12","rack_locks":false},{"uid":43740642,"lat":50.756098,"lng":7.090101,"bike":true,"name":"BIKE 44766","address":null,"spot":false,"number":0,"booked_bikes":0,"bikes":1,"bikes_available_to_rent":1,"bike_racks":0,"free_racks":0,"special_racks":0,"free_special_racks":0,"maintenance":false,"terminal_type":"","bike_list":[{"number":"44766","bike_type":71,"lock_types":["frame_lock"],"active":true,"state":"ok","electric_lock":true,"boardcomputer":7551058640,"pedelec_battery":null,"battery_pack":null}],"bike_numbers":["44766"],"bike_types":{"71":1},"place_type":"12","rack_locks":false},{"uid":43740796,"lat":50.731982,"lng":7.073718,"bike":true,"name":"BIKE 44708","address":null,"spot":false,"number":0,"booked_bikes":0,"bikes":1,"bikes_available_to_rent":1,"bike_racks":0,"free_racks":0,"special_racks":0,"free_special_racks":0,"maintenance":false,"terminal_type":"","bike_list":[{"number":"44708","bike_type":71,"lock_types":["frame_lock"],"active":true,"state":"ok","electric_lock":true,"boardcomputer":7551059523,"pedelec_battery":null,"battery_pack":null}],"bike_numbers":["44708"],"bike_types":{"71":1},"place_type":"12","rack_locks":false},{"uid":43741117,"lat":50.730569,"lng":7.068917,"bike":true,"name":"BIKE 44993","address":null,"spot":false,"number":0,"booked_bikes":0,"bikes":1,"bikes_available_to_rent":1,"bike_racks":0,"free_racks":0,"special_racks":0,"free_special_racks":0,"maintenance":false,"terminal_type":"","bike_list":[{"number":"44993","bike_type":71,"lock_types":["frame_lock"],"active":true,"state":"ok","electric_lock":true,"boardcomputer":7551059526,"pedelec_battery":null,"battery_pack":null}],"bike_numbers":["44993"],"bike_types":{"71":1},"place_type":"12","rack_locks":false},{"uid":43741173,"lat":50.755356,"lng":7.081013,"bike":true,"name":"BIKE 45089","address":null,"spot":false,"number":0,"booked_bikes":0,"bikes":1,"bikes_available_to_rent":1,"bike_racks":0,"free_racks":0,"special_racks":0,"free_special_racks":0,"maintenance":false,"terminal_type":"","bike_list":[{"number":"45089","bike_type":71,"lock_types":["frame_lock"],"active":true,"state":"ok","electric_lock":true,"boardcomputer":7551058723,"pedelec_battery":null,"battery_pack":null}],"bike_numbers":["45089"],"bike_types":{"71":1},"place_type":"12","rack_locks":false},{"uid":43741530,"lat":50.737956,"lng":7.04663,"bike":true,"name":"BIKE 44652","address":null,"spot":false,"number":0,"booked_bikes":0,"bikes":1,"bikes_available_to_rent":1,"bike_racks":0,"free_racks":0,"special_racks":0,"free_special_racks":0,"maintenance":false,"terminal_type":"","bike_list":[{"number":"44652","bike_type":71,"lock_types":["frame_lock"],"active":true,"state":"ok","electric_lock":true,"boardcomputer":7551004514,"pedelec_battery":null,"battery_pack":null}],"bike_numbers":["44652"],"bike_types":{"71":1},"place_type":"12","rack_locks":false},{"uid":43741681,"lat":50.750138,"lng":7.174661,"bike":true,"name":"BIKE 45258","address":null,"spot":false,"number":0,"booked_bikes":0,"bikes":1,"bikes_available_to_rent":1,"bike_racks":0,"free_racks":0,"special_racks":0,"free_special_racks":0,"maintenance":false,"terminal_type":"","bike_list":[{"number":"45258","bike_type":71,"lock_types":["frame_lock"],"active":true,"state":"ok","electric_lock":true,"boardcomputer":7551012432,"pedelec_battery":null,"battery_pack":null}],"bike_numbers":["45258"],"bike_types":{"71":1},"place_type":"12","rack_locks":false},{"uid":43741716,"lat":50.685138,"lng":7.157895,"bike":true,"name":"BIKE 44791","address":null,"spot":false,"number":0,"booked_bikes":0,"bikes":1,"bikes_available_to_rent":1,"bike_racks":0,"free_racks":0,"special_racks":0,"free_special_racks":0,"maintenance":false,"terminal_type":"","bike_list":[{"number":"44791","bike_type":71,"lock_types":["frame_lock"],"active":true,"state":"ok","electric_lock":true,"boardcomputer":7551017864,"pedelec_battery":null,"battery_pack":null}],"bike_numbers":["44791"],"bike_types":{"71":1},"place_type":"12","rack_locks":false},{"uid":43741723,"lat":50.75944,"lng":7.145437,"bike":true,"name":"BIKE 45090","address":null,"spot":false,"number":0,"booked_bikes":0,"bikes":1,"bikes_available_to_rent":1,"bike_racks":0,"free_racks":0,"special_racks":0,"free_special_racks":0,"maintenance":false,"terminal_type":"","bike_list":[{"number":"45090","bike_type":71,"lock_types":["frame_lock"],"active":true,"state":"ok","electric_lock":true,"boardcomputer":7551004638,"pedelec_battery":null,"battery_pack":null}],"bike_numbers":["45090"],"bike_types":{"71":1},"place_type":"12","rack_locks":false},{"uid":43741728,"lat":50.685231,"lng":7.157898,"bike":true,"name":"BIKE 45395","address":null,"spot":false,"number":0,"booked_bikes":0,"bikes":1,"bikes_available_to_rent":1,"bike_racks":0,"free_racks":0,"special_racks":0,"free_special_racks":0,"maintenance":false,"terminal_type":"","bike_list":[{"number":"45395","bike_type":71,"lock_types":["frame_lock"],"active":true,"state":"ok","electric_lock":true,"boardcomputer":7551013422,"pedelec_battery":null,"battery_pack":null}],"bike_numbers":["45395"],"bike_types":{"71":1},"place_type":"12","rack_locks":false},{"uid":43741901,"lat":50.735733,"lng":7.057012,"bike":true,"name":"BIKE 45264","address":null,"spot":false,"number":0,"booked_bikes":0,"bikes":1,"bikes_available_to_rent":1,"bike_racks":0,"free_racks":0,"special_racks":0,"free_special_racks":0,"maintenance":false,"terminal_type":"","bike_list":[{"number":"45264","bike_type":71,"lock_types":["frame_lock"],"active":true,"state":"ok","electric_lock":true,"boardcomputer":7551014678,"pedelec_battery":null,"battery_pack":null}],"bike_numbers":["45264"],"bike_types":{"71":1},"place_type":"12","rack_locks":false},{"uid":43742443,"lat":50.733462,"lng":7.126692,"bike":true,"name":"BIKE 45372","address":null,"spot":false,"number":0,"booked_bikes":0,"bikes":1,"bikes_available_to_rent":1,"bike_racks":0,"free_racks":0,"special_racks":0,"free_special_racks":0,"maintenance":false,"terminal_type":"","bike_list":[{"number":"45372","bike_type":71,"lock_types":["frame_lock"],"active":true,"state":"ok","electric_lock":true,"boardcomputer":7551056414,"pedelec_battery":null,"battery_pack":null}],"bike_numbers":["45372"],"bike_types":{"71":1},"place_type":"12","rack_locks":false},{"uid":43742704,"lat":50.758258,"lng":7.07671,"bike":true,"name":"BIKE 44542","address":null,"spot":false,"number":0,"booked_bikes":0,"bikes":1,"bikes_available_to_rent":1,"bike_racks":0,"free_racks":0,"special_racks":0,"free_special_racks":0,"maintenance":false,"terminal_type":"","bike_list":[{"number":"44542","bike_type":71,"lock_types":["frame_lock"],"active":true,"state":"ok","electric_lock":true,"boardcomputer":7551013432,"pedelec_battery":null,"battery_pack":null}],"bike_numbers":["44542"],"bike_types":{"71":1},"place_type":"12","rack_locks":false},{"uid":43742866,"lat":50.694076,"lng":7.157355,"bike":true,"name":"BIKE 45419","address":null,"spot":false,"number":0,"booked_bikes":0,"bikes":1,"bikes_available_to_rent":1,"bike_racks":0,"free_racks":0,"special_racks":0,"free_special_racks":0,"maintenance":false,"terminal_type":"","bike_list":[{"number":"45419","bike_type":71,"lock_types":["frame_lock"],"active":true,"state":"ok","electric_lock":true,"boardcomputer":7551058644,"pedelec_battery":null,"battery_pack":null}],"bike_numbers":["45419"],"bike_types":{"71":1},"place_type":"12","rack_locks":false},{"uid":43742884,"lat":50.696298,"lng":7.164038,"bike":true,"name":"BIKE 45020","address":null,"spot":false,"number":0,"booked_bikes":0,"bikes":1,"bikes_available_to_rent":1,"bike_racks":0,"free_racks":0,"special_racks":0,"free_special_racks":0,"maintenance":false,"terminal_type":"","bike_list":[{"number":"45020","bike_type":71,"lock_types":["frame_lock"],"active":true,"state":"ok","electric_lock":true,"boardcomputer":7551036875,"pedelec_battery":null,"battery_pack":null}],"bike_numbers":["45020"],"bike_types":{"71":1},"place_type":"12","rack_locks":false},{"uid":43743244,"lat":50.757462,"lng":7.073082,"bike":true,"name":"BIKE 45318","address":null,"spot":false,"number":0,"booked_bikes":0,"bikes":1,"bikes_available_to_rent":1,"bike_racks":0,"free_racks":0,"special_racks":0,"free_special_racks":0,"maintenance":false,"terminal_type":"","bike_list":[{"number":"45318","bike_type":71,"lock_types":["frame_lock"],"active":true,"state":"ok","electric_lock":true,"boardcomputer":7551057896,"pedelec_battery":null,"battery_pack":null}],"bike_numbers":["45318"],"bike_types":{"71":1},"place_type":"12","rack_locks":false},{"uid":43743276,"lat":50.745742,"lng":7.092585,"bike":true,"name":"BIKE 45382","address":null,"spot":false,"number":0,"booked_bikes":0,"bikes":1,"bikes_available_to_rent":1,"bike_racks":0,"free_racks":0,"special_racks":0,"free_special_racks":0,"maintenance":false,"terminal_type":"","bike_list":[{"number":"45382","bike_type":71,"lock_types":["frame_lock"],"active":true,"state":"ok","electric_lock":true,"boardcomputer":7551056472,"pedelec_battery":null,"battery_pack":null}],"bike_numbers":["45382"],"bike_types":{"71":1},"place_type":"12","rack_locks":false},{"uid":43743287,"lat":50.69908,"lng":7.156472,"bike":true,"name":"BIKE 45528","address":null,"spot":false,"number":0,"booked_bikes":0,"bikes":1,"bikes_available_to_rent":1,"bike_racks":0,"free_racks":0,"special_racks":0,"free_special_racks":0,"maintenance":false,"terminal_type":"","bike_list":[{"number":"45528","bike_type":71,"lock_types":["frame_lock"],"active":true,"state":"ok","electric_lock":true,"boardcomputer":7551006197,"pedelec_battery":null,"battery_pack":null}],"bike_numbers":["45528"],"bike_types":{"71":1},"place_type":"12","rack_locks":false},{"uid":43743349,"lat":50.695213,"lng":7.152665,"bike":true,"name":"BIKE 45155","address":null,"spot":false,"number":0,"booked_bikes":0,"bikes":1,"bikes_available_to_rent":1,"bike_racks":0,"free_racks":0,"special_racks":0,"free_special_racks":0,"maintenance":false,"terminal_type":"","bike_list":[{"number":"45155","bike_type":71,"lock_types":["frame_lock"],"active":true,"state":"ok","electric_lock":true,"boardcomputer":7551047842,"pedelec_battery":null,"battery_pack":null}],"bike_numbers":["45155"],"bike_types":{"71":1},"place_type":"12","rack_locks":false},{"uid":43743657,"lat":50.746387,"lng":7.100717,"bike":true,"name":"BIKE 44553","address":null,"spot":false,"number":0,"booked_bikes":0,"bikes":1,"bikes_available_to_rent":1,"bike_racks":0,"free_racks":0,"special_racks":0,"free_special_racks":0,"maintenance":false,"terminal_type":"","bike_list":[{"number":"44553","bike_type":71,"lock_types":["frame_lock"],"active":true,"state":"ok","electric_lock":true,"boardcomputer":7551004784,"pedelec_battery":null,"battery_pack":null}],"bike_numbers":["44553"],"bike_types":{"71":1},"place_type":"12","rack_locks":false},{"uid":43743788,"lat":50.754502,"lng":7.148057,"bike":true,"name":"BIKE 45302","address":null,"spot":false,"number":0,"booked_bikes":0,"bikes":1,"bikes_available_to_rent":1,"bike_racks":0,"free_racks":0,"special_racks":0,"free_special_racks":0,"maintenance":false,"terminal_type":"","bike_list":[{"number":"45302","bike_type":71,"lock_types":["frame_lock"],"active":true,"state":"ok","electric_lock":true,"boardcomputer":7551056819,"pedelec_battery":null,"battery_pack":null}],"bike_numbers":["45302"],"bike_types":{"71":1},"place_type":"12","rack_locks":false},{"uid":43743839,"lat":50.723951,"lng":7.046771,"bike":true,"name":"BIKE 44970","address":null,"spot":false,"number":0,"booked_bikes":0,"bikes":1,"bikes_available_to_rent":1,"bike_racks":0,"free_racks":0,"special_racks":0,"free_special_racks":0,"maintenance":false,"terminal_type":"","bike_list":[{"number":"44970","bike_type":71,"lock_types":["frame_lock"],"active":true,"state":"ok","electric_lock":true,"boardcomputer":7551058717,"pedelec_battery":null,"battery_pack":null}],"bike_numbers":["44970"],"bike_types":{"71":1},"place_type":"12","rack_locks":false},{"uid":43743867,"lat":50.688289,"lng":7.140397,"bike":true,"name":"BIKE 45269","address":null,"spot":false,"number":0,"booked_bikes":0,"bikes":1,"bikes_available_to_rent":1,"bike_racks":0,"free_racks":0,"special_racks":0,"free_special_racks":0,"maintenance":false,"terminal_type":"","bike_list":[{"number":"45269","bike_type":71,"lock_types":["frame_lock"],"active":true,"state":"ok","electric_lock":true,"boardcomputer":7551020397,"pedelec_battery":null,"battery_pack":null}],"bike_numbers":["45269"],"bike_types":{"71":1},"place_type":"12","rack_locks":false},{"uid":43744434,"lat":50.731813,"lng":7.090388,"bike":true,"name":"BIKE 45224","address":null,"spot":false,"number":0,"booked_bikes":0,"bikes":1,"bikes_available_to_rent":1,"bike_racks":0,"free_racks":0,"special_racks":0,"free_special_racks":0,"maintenance":false,"terminal_type":"","bike_list":[{"number":"45224","bike_type":71,"lock_types":["frame_lock"],"active":true,"state":"ok","electric_lock":true,"boardcomputer":7551012317,"pedelec_battery":null,"battery_pack":null}],"bike_numbers":["45224"],"bike_types":{"71":1},"place_type":"12","rack_locks":false},{"uid":43744442,"lat":50.731853,"lng":7.090327,"bike":true,"name":"BIKE 45036","address":null,"spot":false,"number":0,"booked_bikes":0,"bikes":1,"bikes_available_to_rent":1,"bike_racks":0,"free_racks":0,"special_racks":0,"free_special_racks":0,"maintenance":false,"terminal_type":"","bike_list":[{"number":"45036","bike_type":71,"lock_types":["frame_lock"],"active":true,"state":"ok","electric_lock":true,"boardcomputer":7551020624,"pedelec_battery":null,"battery_pack":null}],"bike_numbers":["45036"],"bike_types":{"71":1},"place_type":"12","rack_locks":false},{"uid":43744538,"lat":50.684733,"lng":7.157682,"bike":true,"name":"BIKE 44874","address":null,"spot":false,"number":0,"booked_bikes":0,"bikes":1,"bikes_available_to_rent":1,"bike_racks":0,"free_racks":0,"special_racks":0,"free_special_racks":0,"maintenance":false,"terminal_type":"","bike_list":[{"number":"44874","bike_type":71,"lock_types":["frame_lock"],"active":true,"state":"ok","electric_lock":true,"boardcomputer":7551017787,"pedelec_battery":null,"battery_pack":null}],"bike_numbers":["44874"],"bike_types":{"71":1},"place_type":"12","rack_locks":false},{"uid":43744584,"lat":50.730711,"lng":7.108158,"bike":true,"name":"BIKE 45477","address":null,"spot":false,"number":0,"booked_bikes":0,"bikes":1,"bikes_available_to_rent":1,"bike_racks":0,"free_racks":0,"special_racks":0,"free_special_racks":0,"maintenance":false,"terminal_type":"","bike_list":[{"number":"45477","bike_type":71,"lock_types":["frame_lock"],"active":true,"state":"ok","electric_lock":true,"boardcomputer":7551036768,"pedelec_battery":null,"battery_pack":null}],"bike_numbers":["45477"],"bike_types":{"71":1},"place_type":"12","rack_locks":false},{"uid":43744609,"lat":50.730298,"lng":7.109035,"bike":true,"name":"BIKE 45290","address":null,"spot":false,"number":0,"booked_bikes":0,"bikes":1,"bikes_available_to_rent":1,"bike_racks":0,"free_racks":0,"special_racks":0,"free_special_racks":0,"maintenance":false,"terminal_type":"","bike_list":[{"number":"45290","bike_type":71,"lock_types":["frame_lock"],"active":true,"state":"ok","electric_lock":true,"boardcomputer":7551013511,"pedelec_battery":null,"battery_pack":null}],"bike_numbers":["45290"],"bike_types":{"71":1},"place_type":"12","rack_locks":false},{"uid":43744612,"lat":50.711271,"lng":7.107224,"bike":true,"name":"BIKE 44883","address":null,"spot":false,"number":0,"booked_bikes":0,"bikes":1,"bikes_available_to_rent":1,"bike_racks":0,"free_racks":0,"special_racks":0,"free_special_racks":0,"maintenance":false,"terminal_type":"","bike_list":[{"number":"44883","bike_type":71,"lock_types":["frame_lock"],"active":true,"state":"ok","electric_lock":true,"boardcomputer":7551058459,"pedelec_battery":null,"battery_pack":null}],"bike_numbers":["44883"],"bike_types":{"71":1},"place_type":"12","rack_locks":false},{"uid":43744765,"lat":50.744467,"lng":7.097909,"bike":true,"name":"BIKE 44849","address":null,"spot":false,"number":0,"booked_bikes":0,"bikes":1,"bikes_available_to_rent":1,"bike_racks":0,"free_racks":0,"special_racks":0,"free_special_racks":0,"maintenance":false,"terminal_type":"","bike_list":[{"number":"44849","bike_type":71,"lock_types":["frame_lock"],"active":true,"state":"ok","electric_lock":true,"boardcomputer":7551003391,"pedelec_battery":null,"battery_pack":null}],"bike_numbers":["44849"],"bike_types":{"71":1},"place_type":"12","rack_locks":false},{"uid":43744986,"lat":50.696978,"lng":7.164954,"bike":true,"name":"BIKE 44798","address":null,"spot":false,"number":0,"booked_bikes":0,"bikes":1,"bikes_available_to_rent":1,"bike_racks":0,"free_racks":0,"special_racks":0,"free_special_racks":0,"maintenance":false,"terminal_type":"","bike_list":[{"number":"44798","bike_type":71,"lock_types":["frame_lock"],"active":true,"state":"ok","electric_lock":true,"boardcomputer":7551020409,"pedelec_battery":null,"battery_pack":null}],"bike_numbers":["44798"],"bike_types":{"71":1},"place_type":"12","rack_locks":false},{"uid":43745198,"lat":50.722089,"lng":7.157234,"bike":true,"name":"BIKE 45384","address":null,"spot":false,"number":0,"booked_bikes":0,"bikes":1,"bikes_available_to_rent":1,"bike_racks":0,"free_racks":0,"special_racks":0,"free_special_racks":0,"maintenance":false,"terminal_type":"","bike_list":[{"number":"45384","bike_type":71,"lock_types":["frame_lock"],"active":true,"state":"ok","electric_lock":true,"boardcomputer":7551014010,"pedelec_battery":null,"battery_pack":null}],"bike_numbers":["45384"],"bike_types":{"71":1},"place_type":"12","rack_locks":false},{"uid":43745640,"lat":50.721671,"lng":7.096099,"bike":true,"name":"BIKE 44525","address":null,"spot":false,"number":0,"booked_bikes":0,"bikes":1,"bikes_available_to_rent":1,"bike_racks":0,"free_racks":0,"special_racks":0,"free_special_racks":0,"maintenance":false,"terminal_type":"","bike_list":[{"number":"44525","bike_type":71,"lock_types":["frame_lock"],"active":true,"state":"ok","electric_lock":true,"boardcomputer":7551063406,"pedelec_battery":null,"battery_pack":null}],"bike_numbers":["44525"],"bike_types":{"71":1},"place_type":"12","rack_locks":false},{"uid":43745659,"lat":50.726724,"lng":7.071868,"bike":true,"name":"BIKE 44517","address":null,"spot":false,"number":0,"booked_bikes":0,"bikes":1,"bikes_available_to_rent":1,"bike_racks":0,"free_racks":0,"special_racks":0,"free_special_racks":0,"maintenance":false,"terminal_type":"","bike_list":[{"number":"44517","bike_type":71,"lock_types":["frame_lock"],"active":true,"state":"ok","electric_lock":true,"boardcomputer":7551058725,"pedelec_battery":null,"battery_pack":null}],"bike_numbers":["44517"],"bike_types":{"71":1},"place_type":"12","rack_locks":false},{"uid":43745813,"lat":50.752516,"lng":7.078535,"bike":true,"name":"BIKE 45084","address":null,"spot":false,"number":0,"booked_bikes":0,"bikes":1,"bikes_available_to_rent":1,"bike_racks":0,"free_racks":0,"special_racks":0,"free_special_racks":0,"maintenance":false,"terminal_type":"","bike_list":[{"number":"45084","bike_type":71,"lock_types":["frame_lock"],"active":true,"state":"ok","electric_lock":true,"boardcomputer":7551058077,"pedelec_battery":null,"battery_pack":null}],"bike_numbers":["45084"],"bike_types":{"71":1},"place_type":"12","rack_locks":false},{"uid":43745838,"lat":50.729484,"lng":7.092797,"bike":true,"name":"BIKE 45456","address":null,"spot":false,"number":0,"booked_bikes":0,"bikes":1,"bikes_available_to_rent":1,"bike_racks":0,"free_racks":0,"special_racks":0,"free_special_racks":0,"maintenance":false,"terminal_type":"","bike_list":[{"number":"45456","bike_type":71,"lock_types":["frame_lock"],"active":true,"state":"ok","electric_lock":true,"boardcomputer":7551036485,"pedelec_battery":null,"battery_pack":null}],"bike_numbers":["45456"],"bike_types":{"71":1},"place_type":"12","rack_locks":false},{"uid":43745865,"lat":50.736338,"lng":7.126447,"bike":true,"name":"BIKE 44908","address":null,"spot":false,"number":0,"booked_bikes":0,"bikes":1,"bikes_available_to_rent":1,"bike_racks":0,"free_racks":0,"special_racks":0,"free_special_racks":0,"maintenance":false,"terminal_type":"","bike_list":[{"number":"44908","bike_type":71,"lock_types":["frame_lock"],"active":true,"state":"ok","electric_lock":true,"boardcomputer":7551013175,"pedelec_battery":null,"battery_pack":null}],"bike_numbers":["44908"],"bike_types":{"71":1},"place_type":"12","rack_locks":false},{"uid":43746017,"lat":50.729191,"lng":7.080415,"bike":true,"name":"BIKE 45213","address":null,"spot":false,"number":0,"booked_bikes":0,"bikes":1,"bikes_available_to_rent":1,"bike_racks":0,"free_racks":0,"special_racks":0,"free_special_racks":0,"maintenance":false,"terminal_type":"","bike_list":[{"number":"45213","bike_type":71,"lock_types":["frame_lock"],"active":true,"state":"ok","electric_lock":true,"boardcomputer":7551021510,"pedelec_battery":null,"battery_pack":null}],"bike_numbers":["45213"],"bike_types":{"71":1},"place_type":"12","rack_locks":false},{"uid":43746239,"lat":50.726427,"lng":7.098188,"bike":true,"name":"BIKE 45098","address":null,"spot":false,"number":0,"booked_bikes":0,"bikes":1,"bikes_available_to_rent":1,"bike_racks":0,"free_racks":0,"special_racks":0,"free_special_racks":0,"maintenance":false,"terminal_type":"","bike_list":[{"number":"45098","bike_type":71,"lock_types":["frame_lock"],"active":true,"state":"ok","electric_lock":true,"boardcomputer":7551013828,"pedelec_battery":null,"battery_pack":null}],"bike_numbers":["45098"],"bike_types":{"71":1},"place_type":"12","rack_locks":false},{"uid":43746263,"lat":50.727129,"lng":7.124773,"bike":true,"name":"BIKE 45092","address":null,"spot":false,"number":0,"booked_bikes":0,"bikes":1,"bikes_available_to_rent":1,"bike_racks":0,"free_racks":0,"special_racks":0,"free_special_racks":0,"maintenance":false,"terminal_type":"","bike_list":[{"number":"45092","bike_type":71,"lock_types":["frame_lock"],"active":true,"state":"ok","electric_lock":true,"boardcomputer":7551003443,"pedelec_battery":null,"battery_pack":null}],"bike_numbers":["45092"],"bike_types":{"71":1},"place_type":"12","rack_locks":false},{"uid":43746443,"lat":50.700284,"lng":7.14504,"bike":true,"name":"BIKE 45077","address":null,"spot":false,"number":0,"booked_bikes":0,"bikes":1,"bikes_available_to_rent":1,"bike_racks":0,"free_racks":0,"special_racks":0,"free_special_racks":0,"maintenance":false,"terminal_type":"","bike_list":[{"number":"45077","bike_type":71,"lock_types":["frame_lock"],"active":true,"state":"ok","electric_lock":true,"boardcomputer":7551058063,"pedelec_battery":null,"battery_pack":null}],"bike_numbers":["45077"],"bike_types":{"71":1},"place_type":"12","rack_locks":false},{"uid":43746651,"lat":50.721738,"lng":7.0914,"bike":true,"name":"BIKE 44643","address":null,"spot":false,"number":0,"booked_bikes":0,"bikes":1,"bikes_available_to_rent":1,"bike_racks":0,"free_racks":0,"special_racks":0,"free_special_racks":0,"maintenance":false,"terminal_type":"","bike_list":[{"number":"44643","bike_type":71,"lock_types":["frame_lock"],"active":true,"state":"ok","electric_lock":true,"boardcomputer":7551004680,"pedelec_battery":null,"battery_pack":null}],"bike_numbers":["44643"],"bike_types":{"71":1},"place_type":"12","rack_locks":false},{"uid":43746780,"lat":50.721422,"lng":7.095973,"bike":true,"name":"BIKE 45188","address":null,"spot":false,"number":0,"booked_bikes":0,"bikes":1,"bikes_available_to_rent":1,"bike_racks":0,"free_racks":0,"special_racks":0,"free_special_racks":0,"maintenance":false,"terminal_type":"","bike_list":[{"number":"45188","bike_type":71,"lock_types":["frame_lock"],"active":true,"state":"ok","electric_lock":true,"boardcomputer":7551058210,"pedelec_battery":null,"battery_pack":null}],"bike_numbers":["45188"],"bike_types":{"71":1},"place_type":"12","rack_locks":false},{"uid":43746842,"lat":50.684147,"lng":7.160255,"bike":true,"name":"BIKE 45284","address":null,"spot":false,"number":0,"booked_bikes":0,"bikes":1,"bikes_available_to_rent":1,"bike_racks":0,"free_racks":0,"special_racks":0,"free_special_racks":0,"maintenance":false,"terminal_type":"","bike_list":[{"number":"45284","bike_type":71,"lock_types":["frame_lock"],"active":true,"state":"ok","electric_lock":true,"boardcomputer":7551059385,"pedelec_battery":null,"battery_pack":null}],"bike_numbers":["45284"],"bike_types":{"71":1},"place_type":"12","rack_locks":false},{"uid":43746869,"lat":50.728502,"lng":7.102198,"bike":true,"name":"BIKE 44960","address":null,"spot":false,"number":0,"booked_bikes":1,"bikes":1,"bikes_available_to_rent":0,"bike_racks":0,"free_racks":0,"special_racks":0,"free_special_racks":0,"maintenance":false,"terminal_type":"","bike_list":[{"number":"44960","bike_type":71,"lock_types":["frame_lock"],"active":true,"state":"ok","electric_lock":true,"boardcomputer":7551020550,"pedelec_battery":null,"battery_pack":null}],"bike_numbers":["44960"],"bike_types":{"71":1},"place_type":"12","rack_locks":false},{"uid":43746919,"lat":50.685204,"lng":7.167208,"bike":true,"name":"BIKE 44884","address":null,"spot":false,"number":0,"booked_bikes":0,"bikes":1,"bikes_available_to_rent":1,"bike_racks":0,"free_racks":0,"special_racks":0,"free_special_racks":0,"maintenance":false,"terminal_type":"","bike_list":[{"number":"44884","bike_type":71,"lock_types":["frame_lock"],"active":true,"state":"ok","electric_lock":true,"boardcomputer":7551058650,"pedelec_battery":null,"battery_pack":null}],"bike_numbers":["44884"],"bike_types":{"71":1},"place_type":"12","rack_locks":false},{"uid":43747131,"lat":50.71228,"lng":7.10985,"bike":true,"name":"BIKE 44626","address":null,"spot":false,"number":0,"booked_bikes":0,"bikes":1,"bikes_available_to_rent":1,"bike_racks":0,"free_racks":0,"special_racks":0,"free_special_racks":0,"maintenance":false,"terminal_type":"","bike_list":[{"number":"44626","bike_type":71,"lock_types":["frame_lock"],"active":true,"state":"ok","electric_lock":true,"boardcomputer":7551027231,"pedelec_battery":null,"battery_pack":null}],"bike_numbers":["44626"],"bike_types":{"71":1},"place_type":"12","rack_locks":false},{"uid":43747162,"lat":50.703191,"lng":7.118033,"bike":true,"name":"BIKE 44911","address":null,"spot":false,"number":0,"booked_bikes":0,"bikes":1,"bikes_available_to_rent":1,"bike_racks":0,"free_racks":0,"special_racks":0,"free_special_racks":0,"maintenance":false,"terminal_type":"","bike_list":[{"number":"44911","bike_type":71,"lock_types":["frame_lock"],"active":true,"state":"ok","electric_lock":true,"boardcomputer":7551006380,"pedelec_battery":null,"battery_pack":null}],"bike_numbers":["44911"],"bike_types":{"71":1},"place_type":"12","rack_locks":false},{"uid":43747180,"lat":50.74264,"lng":7.127427,"bike":true,"name":"BIKE 45411","address":null,"spot":false,"number":0,"booked_bikes":0,"bikes":1,"bikes_available_to_rent":1,"bike_racks":0,"free_racks":0,"special_racks":0,"free_special_racks":0,"maintenance":false,"terminal_type":"","bike_list":[{"number":"45411","bike_type":71,"lock_types":["frame_lock"],"active":true,"state":"ok","electric_lock":true,"boardcomputer":7551057859,"pedelec_battery":null,"battery_pack":null}],"bike_numbers":["45411"],"bike_types":{"71":1},"place_type":"12","rack_locks":false},{"uid":43747268,"lat":50.739062,"lng":7.078457,"bike":true,"name":"BIKE 45351","address":null,"spot":false,"number":0,"booked_bikes":0,"bikes":1,"bikes_available_to_rent":1,"bike_racks":0,"free_racks":0,"special_racks":0,"free_special_racks":0,"maintenance":false,"terminal_type":"","bike_list":[{"number":"45351","bike_type":71,"lock_types":["frame_lock"],"active":true,"state":"ok","electric_lock":true,"boardcomputer":7551012756,"pedelec_battery":null,"battery_pack":null}],"bike_numbers":["45351"],"bike_types":{"71":1},"place_type":"12","rack_locks":false},{"uid":43747373,"lat":50.742151,"lng":7.095144,"bike":true,"name":"BIKE 44581","address":null,"spot":false,"number":0,"booked_bikes":0,"bikes":1,"bikes_available_to_rent":1,"bike_racks":0,"free_racks":0,"special_racks":0,"free_special_racks":0,"maintenance":false,"terminal_type":"","bike_list":[{"number":"44581","bike_type":71,"lock_types":["frame_lock"],"active":true,"state":"ok","electric_lock":true,"boardcomputer":7551004676,"pedelec_battery":null,"battery_pack":null}],"bike_numbers":["44581"],"bike_types":{"71":1},"place_type":"12","rack_locks":false},{"uid":43747425,"lat":50.721769,"lng":7.135138,"bike":true,"name":"BIKE 44699","address":null,"spot":false,"number":0,"booked_bikes":0,"bikes":1,"bikes_available_to_rent":1,"bike_racks":0,"free_racks":0,"special_racks":0,"free_special_racks":0,"maintenance":false,"terminal_type":"","bike_list":[{"number":"44699","bike_type":71,"lock_types":["frame_lock"],"active":true,"state":"ok","electric_lock":true,"boardcomputer":7551029326,"pedelec_battery":null,"battery_pack":null}],"bike_numbers":["44699"],"bike_types":{"71":1},"place_type":"12","rack_locks":false},{"uid":43747668,"lat":50.695524,"lng":7.155662,"bike":true,"name":"BIKE 45101","address":null,"spot":false,"number":0,"booked_bikes":0,"bikes":1,"bikes_available_to_rent":1,"bike_racks":0,"free_racks":0,"special_racks":0,"free_special_racks":0,"maintenance":false,"terminal_type":"","bike_list":[{"number":"45101","bike_type":71,"lock_types":["frame_lock"],"active":true,"state":"ok","electric_lock":true,"boardcomputer":7551013059,"pedelec_battery":null,"battery_pack":null}],"bike_numbers":["45101"],"bike_types":{"71":1},"place_type":"12","rack_locks":false},{"uid":43747739,"lat":50.744716,"lng":7.15164,"bike":true,"name":"BIKE 44710","address":null,"spot":false,"number":0,"booked_bikes":0,"bikes":1,"bikes_available_to_rent":1,"bike_racks":0,"free_racks":0,"special_racks":0,"free_special_racks":0,"maintenance":false,"terminal_type":"","bike_list":[{"number":"44710","bike_type":71,"lock_types":["frame_lock"],"active":true,"state":"ok","electric_lock":true,"boardcomputer":7551006768,"pedelec_battery":null,"battery_pack":null}],"bike_numbers":["44710"],"bike_types":{"71":1},"place_type":"12","rack_locks":false},{"uid":43747805,"lat":50.740618,"lng":7.097293,"bike":true,"name":"BIKE 44524","address":null,"spot":false,"number":0,"booked_bikes":0,"bikes":1,"bikes_available_to_rent":1,"bike_racks":0,"free_racks":0,"special_racks":0,"free_special_racks":0,"maintenance":false,"terminal_type":"","bike_list":[{"number":"44524","bike_type":71,"lock_types":["frame_lock"],"active":true,"state":"ok","electric_lock":true,"boardcomputer":7551006025,"pedelec_battery":null,"battery_pack":null}],"bike_numbers":["44524"],"bike_types":{"71":1},"place_type":"12","rack_locks":false},{"uid":43747916,"lat":50.737871,"lng":7.046687,"bike":true,"name":"BIKE 45109","address":null,"spot":false,"number":0,"booked_bikes":0,"bikes":1,"bikes_available_to_rent":1,"bike_racks":0,"free_racks":0,"special_racks":0,"free_special_racks":0,"maintenance":false,"terminal_type":"","bike_list":[{"number":"45109","bike_type":71,"lock_types":["frame_lock"],"active":true,"state":"ok","electric_lock":true,"boardcomputer":7551004738,"pedelec_battery":null,"battery_pack":null}],"bike_numbers":["45109"],"bike_types":{"71":1},"place_type":"12","rack_locks":false},{"uid":43747957,"lat":50.748916,"lng":7.099638,"bike":true,"name":"BIKE 45273","address":null,"spot":false,"number":0,"booked_bikes":0,"bikes":1,"bikes_available_to_rent":1,"bike_racks":0,"free_racks":0,"special_racks":0,"free_special_racks":0,"maintenance":false,"terminal_type":"","bike_list":[{"number":"45273","bike_type":71,"lock_types":["frame_lock"],"active":true,"state":"ok","electric_lock":true,"boardcomputer":7551025647,"pedelec_battery":null,"battery_pack":null}],"bike_numbers":["45273"],"bike_types":{"71":1},"place_type":"12","rack_locks":false},{"uid":43747959,"lat":50.742018,"lng":7.150138,"bike":true,"name":"BIKE 44597","address":null,"spot":false,"number":0,"booked_bikes":0,"bikes":1,"bikes_available_to_rent":1,"bike_racks":0,"free_racks":0,"special_racks":0,"free_special_racks":0,"maintenance":false,"terminal_type":"","bike_list":[{"number":"44597","bike_type":71,"lock_types":["frame_lock"],"active":true,"state":"ok","electric_lock":true,"boardcomputer":7551007113,"pedelec_battery":null,"battery_pack":null}],"bike_numbers":["44597"],"bike_types":{"71":1},"place_type":"12","rack_locks":false}]}]}]}