{"countries":[{"lat":50.7252,"lng":7.13768,"zoom":11,"name":"Bonn nextbike","hotline":"00493069205046","domain":"bf","language":"de","email":"kundenservice@nextbike.de","timezone":"Europe/Berlin","currency":"EUR","country_calling_code":"+49","system_operator_address":"nextbike GmbH, Erich-Zeigner Allee 69-73, 04229 Leipzig","country":"DE","country_name":"Germany","terms":"https://www.nextbike.de/de/agb/#202006","policy":"https://www.nextbike.de/datenschutz/","website":"https://www.nextbike.de/de/bonn/","show_bike_types":false,"show_bike_type_groups":false,"show_free_racks":false,"booked_bikes":0,"set_point_bikes":1043,"available_bikes":145,"capped_available_bikes":false,"no_registration":false,"pricing":"https://www.nextbike.de/de/bonn/preise/","cities":[{"uid":547,"lat":50.7367,"lng":7.09541,"zoom":12,"maps_icon":"","alias":"bonn","break":false,"name":"Bonn","num_places":249,"refresh_rate":"10120","bounds":{"south_west":{"lat":50.6069,"lng":6.276},"north_east":{"lat":50.8908,"lng":7.205}},"booked_bikes":0,"set_point_bikes":1043,"available_bikes":145,"return_to_official_only":true,"bike_types":{"14":1,"71":240,"143":12,"150":4,"undefined":2},"website":"https://www.nextbike.de/de/bonn/","places":[{"uid":10044279,"lat":50.739211,"lng":7.126598,"bike":false,"name":"Bahnhof Beuel","address":null,"spot":true,"number":4741,"booked_bikes":0,"bikes":0,"bikes_available_to_rent":0,"bike_racks":0,"free_racks":0,"special_racks":0,"free_special_racks":0,"maintenance":false,"terminal_type":"free","bike_list":[],"bike_numbers":[],"bike_types":{},"place_type":"0","rack_locks":false},{"uid":10044287,"lat":50.736768,"lng":7.080957,"bike":false,"name":"Haltepunkt Bonn-West","address":null,"spot":true,"number":4742,"booked_bikes":0,"bikes":0,"bikes_available_to_rent":0,"bike_racks":0,"free_racks":0,"special_racks":0,"free_special_racks":0,"maintenance":false,"terminal_type":"free","bike_list":[],"bike_numbers":[],"bike_types":{},"place_type":"0","rack_locks":false},{"uid":10044296,"lat":50.71461,"lng":7.160082,"bike":false,"name":"Bahnhof Oberkassel","address":null,"spot":true,"number":4743,"booked_bikes":0,"bikes":0,"bikes_available_to_rent":0,"bike_racks":0,"free_racks":0,"special_racks":0,"free_special_racks":0,"maintenance":false,"terminal_type":"free","bike_list":[],"bike_numbers":[],"bike_types":{},"place_type":"0","rack_locks":false},{"uid":10044315,"lat":50.71788,"lng":7.12546,"bike":false,"name":"Bundeshaus","address":null,"spot":true,"number":4744,"booked_bikes":0,"bikes":0,"bikes_available_to_rent":0,"bike_racks":0,"free_racks":0,"special_racks":0,"free_special_racks":0,"maintenance":false,"terminal_type":"free","bike_list":[],"bike_numbers":[],"bike_types":{},"place_type":"0","rack_locks":false},{"uid":10044322,"lat":50.71757,"lng":7.090974,"bike":false,"name":"St. Marien Hospital","address":null,"spot":true,"number":4745,"booked_bikes":0,"bikes":0,"bikes_available_to_rent":0,"bike_racks":0,"free_racks":0,"special_racks":0,"free_special_racks":0,"maintenance":false,"terminal_type":"free","bike_list":[],"bike_numbers":[],"bike_types":{},"place_type":"0","rack_locks":false},{"uid":10044348,"lat":50.702784,"lng":7.10029,"bike":false,"name":"UKBonn","address":null,"spot":true,"number":4748,"booked_bikes":0,"bikes":0,"bikes_available_to_rent":0,"bike_racks":0,"free_racks":0,"special_racks":0,"free_special_racks":0,"maintenance":true,"terminal_type":"free","bike_list":[],"bike_numbers":[],"bike_types":{},"place_type":"0","rack_locks":false},{"uid":10044359,"lat":50.734919,"lng":7.102499,"bike":false,"name":"Altes Rathaus","address":null,"spot":true,"number":4749,"booked_bikes":0,"bikes":0,"bikes_available_to_rent":0,"bike_racks":0,"free_racks":0,"special_racks":0,"free_special_racks":0,"maintenance":false,"terminal_type":"free","bike_list":[],"bike_numbers":[],"bike_types":{},"place_type":"0","rack_locks":false},{"uid":10044374,"lat":50.725962,"lng":7.094151,"bike":false,"name":"Poppelsdorfer Schloss","address":null,"spot":true,"number":4750,"booked_bikes":0,"bikes":0,"bikes_available_to_rent":0,"bike_racks":0,"free_racks":0,"special_racks":0,"free_special_racks":0,"maintenance":false,"terminal_type":"free","bike_list":[],"bike_numbers":[],"bike_types":{},"place_type":"0","rack_locks":false},{"uid":10044445,"lat":50.736217,"lng":7.094604,"bike":false,"name":"Alter Friedhof","address":null,"spot":true,"number":4752,"booked_bikes":0,"bikes":0,"bikes_available_to_rent":0,"bike_racks":0,"free_racks":0,"special_racks":0,"free_special_racks":0,"maintenance":false,"terminal_type":"free","bike_list":[],"bike_numbers":[],"bike_types":{},"place_type":"0","rack_locks":false},{"uid":10044458,"lat":50.73433,"lng":7.097629,"bike":false,"name":"Bonn Information","address":null,"spot":true,"number":4753,"booked_bikes":0,"bikes":0,"bikes_available_to_rent":0,"bike_racks":0,"free_racks":0,"special_racks":0,"free_special_racks":0,"maintenance":false,"terminal_type":"free","bike_list":[],"bike_numbers":[],"bike_types":{},"place_type":"0","rack_locks":false},{"uid":10044463,"lat":50.717595,"lng":7.119956,"bike":false,"name":"Haus der Geschichte","address":null,"spot":true,"number":4754,"booked_bikes":0,"bikes":0,"bikes_available_to_rent":0,"bike_racks":0,"free_racks":0,"special_racks":0,"free_special_racks":0,"maintenance":false,"terminal_type":"free","bike_list":[],"bike_numbers":[],"bike_types":{},"place_type":"0","rack_locks":false},{"uid":10044492,"lat":50.740346,"lng":7.091728,"bike":false,"name":"Frauen Museum","address":null,"spot":true,"number":4757,"booked_bikes":0,"bikes":0,"bikes_available_to_rent":0,"bike_racks":0,"free_racks":0,"special_racks":0,"free_special_racks":0,"maintenance":false,"terminal_type":"free","bike_list":[],"bike_numbers":[],"bike_types":{},"place_type":"0","rack_locks":false},{"uid":10044499,"lat":50.736858,"lng":7.105968,"bike":false,"name":"Theater Bonn","address":null,"spot":true,"number":4759,"booked_bikes":0,"bikes":0,"bikes_available_to_rent":0,"bike_racks":0,"free_racks":0,"special_racks":0,"free_special_racks":0,"maintenance":true,"terminal_type":"free","bike_list":[],"bike_numbers":[],"bike_types":{},"place_type":"0","rack_locks":false},{"uid":10044510,"lat":50.735092,"lng":7.108273,"bike":false,"name":"Schiffsanlegestelle „Alter Zoll“","address":null,"spot":true,"number":4760,"booked_bikes":0,"bikes":0,"bikes_available_to_rent":0,"bike_racks":0,"free_racks":0,"special_racks":0,"free_special_racks":0,"maintenance":false,"terminal_type":"free","bike_list":[],"bike_numbers":[],"bike_types":{},"place_type":"0","rack_locks":false},{"uid":10044525,"lat":50.717948,"lng":7.154122,"bike":false,"name":"Bonner Bogen","address":null,"spot":true,"number":4761,"booked_bikes":0,"bikes":0,"bikes_available_to_rent":0,"bike_racks":0,"free_racks":0,"special_racks":0,"free_special_racks":0,"maintenance":false,"terminal_type":"free","bike_list":[],"bike_numbers":[],"bike_types":{},"place_type":"0","rack_locks":false},{"uid":10044530,"lat":50.718658,"lng":7.129261,"bike":false,"name":"Schiffsanlegestelle Bundeshaus","address":null,"spot":true,"number":4762,"booked_bikes":0,"bikes":0,"bikes_available_to_rent":0,"bike_racks":0,"free_racks":0,"special_racks":0,"free_special_racks":0,"maintenance":false,"terminal_type":"free","bike_list":[],"bike_numbers":[],"bike_types":{},"place_type":"0","rack_locks":false},{"uid":10044540,"lat":50.730092,"lng":7.108278,"bike":false,"name":"Juridicum","address":null,"spot":true,"number":4764,"booked_bikes":0,"bikes":0,"bikes_available_to_rent":0,"bike_racks":0,"free_racks":0,"special_racks":0,"free_special_racks":0,"maintenance":false,"terminal_type":"free","bike_list":[],"bike_numbers":[],"bike_types":{},"place_type":"0","rack_locks":false},{"uid":10044582,"lat":50.728481,"lng":7.08527,"bike":false,"name":"Campus Poppelsdorf I","address":null,"spot":true,"number":4765,"booked_bikes":0,"bikes":0,"bikes_available_to_rent":0,"bike_racks":0,"free_racks":0,"special_racks":0,"free_special_racks":0,"maintenance":false,"terminal_type":"free","bike_list":[],"bike_numbers":[],"bike_types":{},"place_type":"0","rack_locks":false},{"uid":10044627,"lat":50.710586,"lng":7.126873,"bike":false,"name":"Ollenhauerstraße","address":null,"spot":true,"number":4769,"booked_bikes":0,"bikes":0,"bikes_available_to_rent":0,"bike_racks":0,"free_racks":0,"special_racks":0,"free_special_racks":0,"maintenance":false,"terminal_type":"free","bike_list":[],"bike_numbers":[],"bike_types":{},"place_type":"0","rack_locks":false},{"uid":10044650,"lat":50.721643,"lng":7.143157,"bike":false,"name":"T-Mobile, Landgrabenweg","address":null,"spot":true,"number":4772,"booked_bikes":0,"bikes":0,"bikes_available_to_rent":0,"bike_racks":0,"free_racks":0,"special_racks":0,"free_special_racks":0,"maintenance":false,"terminal_type":"free","bike_list":[],"bike_numbers":[],"bike_types":{},"place_type":"0","rack_locks":false},{"uid":10044658,"lat":50.749956,"lng":7.175042,"bike":false,"name":"Kohlkauer Platz","address":null,"spot":true,"number":4773,"booked_bikes":0,"bikes":0,"bikes_available_to_rent":0,"bike_racks":0,"free_racks":0,"special_racks":0,"free_special_racks":0,"maintenance":false,"terminal_type":"free","bike_list":[],"bike_numbers":[],"bike_types":{},"place_type":"0","rack_locks":false},{"uid":10044664,"lat":50.73656,"lng":7.117344,"bike":false,"name":"Beuel Krankenhaus","address":null,"spot":true,"number":4774,"booked_bikes":0,"bikes":0,"bikes_available_to_rent":0,"bike_racks":0,"free_racks":0,"special_racks":0,"free_special_racks":0,"maintenance":false,"terminal_type":"free","bike_list":[],"bike_numbers":[],"bike_types":{},"place_type":"0","rack_locks":false},{"uid":10044675,"lat":50.697096,"lng":7.141677,"bike":false,"name":"Hochkreuz","address":null,"spot":true,"number":4775,"booked_bikes":0,"bikes":0,"bikes_available_to_rent":0,"bike_racks":0,"free_racks":0,"special_racks":0,"free_special_racks":0,"maintenance":false,"terminal_type":"free","bike_list":[],"bike_numbers":[],"bike_types":{},"place_type":"0","rack_locks":false},{"uid":10044687,"lat":50.725994,"lng":7.111225,"bike":false,"name":"Bundesrechnungshof","address":null,"spot":true,"number":4776,"booked_bikes":0,"bikes":0,"bikes_available_to_rent":0,"bike_racks":0,"free_racks":0,"special_racks":0,"free_special_racks":0,"maintenance":false,"terminal_type":"free","bike_list":[],"bike_numbers":[],"bike_types":{},"place_type":"0","rack_locks":false},{"uid":10044713,"lat":50.721355,"lng":7.087861,"bike":false,"name":"Poppelsdorfer Platz","address":null,"spot":true,"number":4777,"booked_bikes":0,"bikes":0,"bikes_available_to_rent":0,"bike_racks":0,"free_racks":0,"special_racks":0,"free_special_racks":0,"maintenance":false,"terminal_type":"free","bike_list":[],"bike_numbers":[],"bike_types":{},"place_type":"0","rack_locks":false},{"uid":10044733,"lat":50.727019,"lng":7.081236,"bike":false,"name":"Wiesenweg","address":null,"spot":true,"number":4781,"booked_bikes":0,"bikes":0,"bikes_available_to_rent":0,"bike_racks":0,"free_racks":0,"special_racks":0,"free_special_racks":0,"maintenance":false,"terminal_type":"free","bike_list":[],"bike_numbers":[],"bike_types":{},"place_type":"0","rack_locks":false},{"uid":10044742,"lat":50.722049,"lng":7.155165,"bike":false,"name":"Ramersdorf","address":null,"spot":true,"number":4782,"booked_bikes":0,"bikes":0,"bikes_available_to_rent":0,"bike_racks":0,"free_racks":0,"special_racks":0,"free_special_racks":0,"maintenance":false,"terminal_type":"free","bike_list":[],"bike_numbers":[],"bike_types":{},"place_type":"0","rack_locks":false},{"uid":10044761,"lat":50.735673,"lng":7.096814,"bike":false,"name":"Friedensplatz/Budapester Straße","address":null,"spot":true,"number":4785,"booked_bikes":0,"bikes":0,"bikes_available_to_rent":0,"bike_racks":0,"free_racks":0,"special_racks":0,"free_special_racks":0,"maintenance":false,"terminal_type":"free","bike_list":[],"bike_numbers":[],"bike_types":{},"place_type":"0","rack_locks":false},{"uid":10044769,"lat":50.71464,"lng":7.118325,"bike":false,"name":"UN-Campus","address":null,"spot":true,"number":4786,"booked_bikes":0,"bikes":0,"bikes_available_to_rent":0,"bike_racks":0,"free_racks":0,"special_racks":0,"free_special_racks":0,"maintenance":false,"terminal_type":"free","bike_list":[],"bike_numbers":[],"bike_types":{},"place_type":"0","rack_locks":false},{"uid":10044780,"lat":50.706681,"lng":7.137606,"bike":false,"name":"Robert Schumann Platz","address":null,"spot":true,"number":4787,"booked_bikes":0,"bikes":0,"bikes_available_to_rent":0,"bike_racks":0,"free_racks":0,"special_racks":0,"free_special_racks":0,"maintenance":false,"terminal_type":"free","bike_list":[],"bike_numbers":[],"bike_types":{},"place_type":"0","rack_locks":false},{"uid":10058424,"lat":50.72143,"lng":7.114651,"bike":false,"name":"Museum König","address":null,"spot":true,"number":4874,"booked_bikes":0,"bikes":0,"bikes_available_to_rent":0,"bike_racks":0,"free_racks":0,"special_racks":0,"free_special_racks":0,"maintenance":false,"terminal_type":"free","bike_list":[],"bike_numbers":[],"bike_types":{},"place_type":"0","rack_locks":false},{"uid":10058463,"lat":50.742695,"lng":7.117317,"bike":false,"name":"Rheindorfer Straße","address":null,"spot":true,"number":4877,"booked_bikes":0,"bikes":0,"bikes_available_to_rent":0,"bike_racks":0,"free_racks":0,"special_racks":0,"free_special_racks":0,"maintenance":false,"terminal_type":"free","bike_list":[],"bike_numbers":[],"bike_types":{},"place_type":"0","rack_locks":false},{"uid":10058482,"lat":50.740943,"lng":7.131441,"bike":false,"name":"Schauspielhalle","address":null,"spot":true,"number":4878,"booked_bikes":0,"bikes":0,"bikes_available_to_rent":0,"bike_racks":0,"free_racks":0,"special_racks":0,"free_special_racks":0,"maintenance":false,"terminal_type":"free","bike_list":[],"bike_numbers":[],"bike_types":{},"place_type":"0","rack_locks":false},{"uid":10058493,"lat":50.732863,"lng":7.083832,"bike":false,"name":"Karlstraße","address":null,"spot":true,"number":4879,"booked_bikes":0,"bikes":0,"bikes_available_to_rent":0,"bike_racks":0,"free_racks":0,"special_racks":0,"free_special_racks":0,"maintenance":false,"terminal_type":"free","bike_list":[],"bike_numbers":[],"bike_types":{},"place_type":"0","rack_locks":false},{"uid":10058501,"lat":50.743445,"lng":7.090307,"bike":false,"name":"Chlodwigplatz","address":null,"spot":true,"number":4880,"booked_bikes":0,"bikes":0,"bikes_available_to_rent":0,"bike_racks":0,"free_racks":0,"special_racks":0,"free_special_racks":0,"maintenance":false,"terminal_type":"free","bike_list":[],"bike_numbers":[],"bike_types":{},"place_type":"0","rack_locks":false},{"uid":10058514,"lat":50.741469,"lng":7.097817,"bike":false,"name":"Rosental/Am Johanneskreuz","address":null,"spot":true,"number":4882,"booked_bikes":0,"bikes":0,"bikes_available_to_rent":0,"bike_racks":0,"free_racks":0,"special_racks":0,"free_special_racks":0,"maintenance":false,"terminal_type":"free","bike_list":[],"bike_numbers":[],"bike_types":{},"place_type":"0","rack_locks":false},{"uid":10058527,"lat":50.75523,"lng":7.076526,"bike":false,"name":"Pariser Straße","address":null,"spot":true,"number":4883,"booked_bikes":0,"bikes":0,"bikes_available_to_rent":0,"bike_racks":0,"free_racks":0,"special_racks":0,"free_special_racks":0,"maintenance":true,"terminal_type":"free","bike_list":[],"bike_numbers":[],"bike_types":{},"place_type":"0","rack_locks":false},{"uid":10058536,"lat":50.749755,"lng":7.046147,"bike":false,"name":"Tannenbusch Mitte","address":null,"spot":true,"number":4884,"booked_bikes":0,"bikes":0,"bikes_available_to_rent":0,"bike_racks":0,"free_racks":0,"special_racks":0,"free_special_racks":0,"maintenance":false,"terminal_type":"free","bike_list":[],"bike_numbers":[],"bike_types":{},"place_type":"0","rack_locks":false},{"uid":10058548,"lat":50.726092,"lng":7.073978,"bike":false,"name":"Magdalenenplatz","address":null,"spot":true,"number":4886,"booked_bikes":0,"bikes":1,"bikes_available_to_rent":1,"bike_racks":0,"free_racks":0,"special_racks":0,"free_special_racks":0,"maintenance":false,"terminal_type":"free","bike_list":[{"number":"44554","bike_type":71,"lock_types":["frame_lock"],"active":true,"state":"ok","electric_lock":true,"boardcomputer":7551036573,"pedelec_battery":null,"battery_pack":null}],"bike_numbers":["44554"],"bike_types":{"71":1},"place_type":"0","rack_locks":false},{"uid":10058564,"lat":50.739524,"lng":7.087335,"bike":false,"name":"Frankenbad/Vorgebirgsstraße","address":null,"spot":true,"number":4888,"booked_bikes":0,"bikes":0,"bikes_available_to_rent":0,"bike_racks":0,"free_racks":0,"special_racks":0,"free_special_racks":0,"maintenance":false,"terminal_type":"free","bike_list":[],"bike_numbers":[],"bike_types":{},"place_type":"0","rack_locks":false},{"uid":10058571,"lat":50.697504,"lng":7.08042,"bike":false,"name":"Ippendorf","address":null,"spot":true,"number":4889,"booked_bikes":0,"bikes":0,"bikes_available_to_rent":0,"bike_racks":0,"free_racks":0,"special_racks":0,"free_special_racks":0,"maintenance":false,"terminal_type":"free","bike_list":[],"bike_numbers":[],"bike_types":{},"place_type":"0","rack_locks":false},{"uid":10059156,"lat":50.737971,"lng":7.113851,"bike":false,"name":"Hans-Steger-Ufer","address":null,"spot":true,"number":4890,"booked_bikes":0,"bikes":0,"bikes_available_to_rent":0,"bike_racks":0,"free_racks":0,"special_racks":0,"free_special_racks":0,"maintenance":false,"terminal_type":"free","bike_list":[],"bike_numbers":[],"bike_types":{},"place_type":"0","rack_locks":false},{"uid":10059187,"lat":50.754283,"lng":7.146741,"bike":false,"name":"Vilich Müldorf","address":null,"spot":true,"number":4894,"booked_bikes":0,"bikes":0,"bikes_available_to_rent":0,"bike_racks":0,"free_racks":0,"special_racks":0,"free_special_racks":0,"maintenance":false,"terminal_type":"free","bike_list":[],"bike_numbers":[],"bike_types":{},"place_type":"0","rack_locks":false},{"uid":10059220,"lat":50.71626,"lng":7.041636,"bike":false,"name":"Bahnhof Duisdorf","address":null,"spot":true,"number":4896,"booked_bikes":0,"bikes":0,"bikes_available_to_rent":0,"bike_racks":0,"free_racks":0,"special_racks":0,"free_special_racks":0,"maintenance":false,"terminal_type":"free","bike_list":[],"bike_numbers":[],"bike_types":{},"place_type":"0","rack_locks":false},{"uid":10059244,"lat":50.699567,"lng":7.057251,"bike":false,"name":"Celsiusstraße","address":null,"spot":true,"number":4899,"booked_bikes":0,"bikes":0,"bikes_available_to_rent":0,"bike_racks":0,"free_racks":0,"special_racks":0,"free_special_racks":0,"maintenance":false,"terminal_type":"free","bike_list":[],"bike_numbers":[],"bike_types":{},"place_type":"0","rack_locks":false},{"uid":10059319,"lat":50.691768,"lng":7.148076,"bike":false,"name":"Wurzer Straße","address":null,"spot":true,"number":4970,"booked_bikes":0,"bikes":0,"bikes_available_to_rent":0,"bike_racks":0,"free_racks":0,"special_racks":0,"free_special_racks":0,"maintenance":false,"terminal_type":"free","bike_list":[],"bike_numbers":[],"bike_types":{},"place_type":"0","rack_locks":false},{"uid":10059334,"lat":50.687547,"lng":7.154074,"bike":false,"name":"Haltepunkt Plittersdorfer Straße","address":null,"spot":true,"number":4971,"booked_bikes":0,"bikes":0,"bikes_available_to_rent":0,"bike_racks":0,"free_racks":0,"special_racks":0,"free_special_racks":0,"maintenance":false,"terminal_type":"free","bike_list":[],"bike_numbers":[],"bike_types":{},"place_type":"0","rack_locks":false},{"uid":10059347,"lat":50.683143,"lng":7.159175,"bike":false,"name":"Bahnhof Godesberg","address":null,"spot":true,"number":4973,"booked_bikes":0,"bikes":0,"bikes_available_to_rent":0,"bike_racks":0,"free_racks":0,"special_racks":0,"free_special_racks":0,"maintenance":false,"terminal_type":"free","bike_list":[],"bike_numbers":[],"bike_types":{},"place_type":"0","rack_locks":false},{"uid":10059413,"lat":50.668494,"lng":7.181722,"bike":false,"name":"Bahnhof Mehlem","address":null,"spot":true,"number":4974,"booked_bikes":0,"bikes":0,"bikes_available_to_rent":0,"bike_racks":0,"free_racks":0,"special_racks":0,"free_special_racks":0,"maintenance":false,"terminal_type":"free","bike_list":[],"bike_numbers":[],"bike_types":{},"place_type":"0","rack_locks":false},{"uid":10059425,"lat":50.683765,"lng":7.155844,"bike":false,"name":"Koblenzer Straße","address":null,"spot":true,"number":4975,"booked_bikes":0,"bikes":0,"bikes_available_to_rent":0,"bike_racks":0,"free_racks":0,"special_racks":0,"free_special_racks":0,"maintenance":false,"terminal_type":"free","bike_list":[],"bike_numbers":[],"bike_types":{},"place_type":"0","rack_locks":false},{"uid":10059495,"lat":50.758852,"lng":7.047053,"bike":false,"name":"Buschdorf","address":null,"spot":true,"number":4982,"booked_bikes":0,"bikes":0,"bikes_available_to_rent":0,"bike_racks":0,"free_racks":0,"special_racks":0,"free_special_racks":0,"maintenance":false,"terminal_type":"free","bike_list":[],"bike_numbers":[],"bike_types":{},"place_type":"0","rack_locks":false},{"uid":10059545,"lat":50.706816,"lng":7.033889,"bike":false,"name":"Malteser Krankenhaus","address":null,"spot":true,"number":4984,"booked_bikes":0,"bikes":0,"bikes_available_to_rent":0,"bike_racks":0,"free_racks":0,"special_racks":0,"free_special_racks":0,"maintenance":false,"terminal_type":"free","bike_list":[],"bike_numbers":[],"bike_types":{},"place_type":"0","rack_locks":false},{"uid":10059589,"lat":50.69206,"lng":7.064745,"bike":false,"name":"Ückesdorf","address":null,"spot":true,"number":4985,"booked_bikes":0,"bikes":0,"bikes_available_to_rent":0,"bike_racks":0,"free_racks":0,"special_racks":0,"free_special_racks":0,"maintenance":false,"terminal_type":"free","bike_list":[],"bike_numbers":[],"bike_types":{},"place_type":"0","rack_locks":false},{"uid":10059595,"lat":50.678006,"lng":7.070915,"bike":false,"name":"Röttgen","address":null,"spot":true,"number":4986,"booked_bikes":0,"bikes":0,"bikes_available_to_rent":0,"bike_racks":0,"free_racks":0,"special_racks":0,"free_special_racks":0,"maintenance":false,"terminal_type":"free","bike_list":[],"bike_numbers":[],"bike_types":{},"place_type":"0","rack_locks":false},{"uid":10059613,"lat":50.664601,"lng":7.171181,"bike":false,"name":"Lannesdorf Mitte","address":null,"spot":true,"number":4987,"booked_bikes":0,"bikes":0,"bikes_available_to_rent":0,"bike_racks":0,"free_racks":0,"special_racks":0,"free_special_racks":0,"maintenance":false,"terminal_type":"free","bike_list":[],"bike_numbers":[],"bike_types":{},"place_type":"0","rack_locks":false},{"uid":10059620,"lat":50.670497,"lng":7.16116,"bike":false,"name":"Muffendorf Kommende","address":null,"spot":true,"number":4988,"booked_bikes":0,"bikes":0,"bikes_available_to_rent":0,"bike_racks":0,"free_racks":0,"special_racks":0,"free_special_racks":0,"maintenance":false,"terminal_type":"free","bike_list":[],"bike_numbers":[],"bike_types":{},"place_type":"0","rack_locks":false},{"uid":10059626,"lat":50.698048,"lng":7.126812,"bike":false,"name":"Friesdorf Klufterplatz","address":null,"spot":true,"number":4989,"booked_bikes":0,"bikes":0,"bikes_available_to_rent":0,"bike_racks":0,"free_racks":0,"special_racks":0,"free_special_racks":0,"maintenance":false,"terminal_type":"free","bike_list":[],"bike_numbers":[],"bike_types":{},"place_type":"0","rack_locks":false},{"uid":10478976,"lat":50.739942,"lng":7.103106,"bike":false,"name":"SWB Haupteingang","address":null,"spot":true,"number":4972,"booked_bikes":0,"bikes":0,"bikes_available_to_rent":0,"bike_racks":0,"free_racks":0,"special_racks":0,"free_special_racks":0,"maintenance":false,"terminal_type":"free","bike_list":[],"bike_numbers":[],"bike_types":{},"place_type":"0","rack_locks":false},{"uid":10666213,"lat":50.734985,"lng":7.061752,"bike":false,"name":"Endenich Nord/ Auf dem Hügel","address":null,"spot":true,"number":4739,"booked_bikes":0,"bikes":0,"bikes_available_to_rent":0,"bike_racks":0,"free_racks":0,"special_racks":0,"free_special_racks":0,"maintenance":false,"terminal_type":"free","bike_list":[],"bike_numbers":[],"bike_types":{},"place_type":"0","rack_locks":false},{"uid":12528644,"lat":50.704497,"lng":7.112296,"bike":false,"name":"Quirinusplatz","address":null,"spot":true,"number":4780,"booked_bikes":0,"bikes":0,"bikes_available_to_rent":0,"bike_racks":0,"free_racks":0,"special_racks":0,"free_special_racks":0,"maintenance":false,"terminal_type":"free","bike_list":[],"bike_numbers":[],"bike_types":{},"place_type":"0","rack_locks":false},{"uid":12585369,"lat":50.715809,"lng":7.050042,"bike":false,"name":"Rochusstraße","address":null,"spot":true,"number":4897,"booked_bikes":0,"bikes":0,"bikes_available_to_rent":0,"bike_racks":0,"free_racks":0,"special_racks":0,"free_special_racks":0,"maintenance":false,"terminal_type":"free","bike_list":[],"bike_numbers":[],"bike_types":{},"place_type":"0","rack_locks":false},{"uid":16804329,"lat":50.739524,"lng":7.117767,"bike":false,"name":"Konrad-Adenauer-Platz","address":null,"spot":true,"number":4783,"booked_bikes":0,"bikes":0,"bikes_available_to_rent":0,"bike_racks":0,"free_racks":0,"special_racks":0,"free_special_racks":0,"maintenance":false,"terminal_type":"free","bike_list":[],"bike_numbers":[],"bike_types":{},"place_type":"0","rack_locks":false},{"uid":45646319,"lat":50.745076,"lng":7.057015,"bike":true,"name":"BIKE 44524","address":null,"spot":false,"number":0,"booked_bikes":0,"bikes":1,"bikes_available_to_rent":1,"bike_racks":0,"free_racks":0,"special_racks":0,"free_special_racks":0,"maintenance":false,"terminal_type":"","bike_list":[{"number":"44524","bike_type":71,"lock_types":["frame_lock"],"active":true,"state":"ok","electric_lock":true,"boardcomputer":7551006025,"pedelec_battery":null,"battery_pack":null}],"bike_numbers":["44524"],"bike_types":{"71":1},"place_type":"12","rack_locks":false},{"uid":45698190,"lat":50.743164,"lng":7.052675,"bike":true,"name":"BIKE 45436","address":null,"spot":false,"number":0,"booked_bikes":0,"bikes":1,"bikes_available_to_rent":1,"bike_racks":0,"free_racks":0,"special_racks":0,"free_special_racks":0,"maintenance":false,"terminal_type":"","bike_list":[{"number":"45436","bike_type":71,"lock_types":["frame_lock"],"active":true,"state":"ok","electric_lock":true,"boardcomputer":7551020384,"pedelec_battery":null,"battery_pack":null}],"bike_numbers":["45436"],"bike_types":{"71":1},"place_type":"12","rack_locks":false},{"uid":45701639,"lat":50.750911,"lng":7.053417,"bike":true,"name":"BIKE 45310","address":null,"spot":false,"number":0,"booked_bikes":0,"bikes":1,"bikes_available_to_rent":1,"bike_racks":0,"free_racks":0,"special_racks":0,"free_special_racks":0,"maintenance":false,"terminal_type":"","bike_list":[{"number":"45310","bike_type":71,"lock_types":["frame_lock"],"active":true,"state":"ok","electric_lock":true,"boardcomputer":7551014381,"pedelec_battery":null,"battery_pack":null}],"bike_numbers":["45310"],"bike_types":{"71":1},"place_type":"12","rack_locks":false},{"uid":45701789,"lat":50.750902,"lng":7.053514,"bike":true,"name":"BIKE 44856","address":null,"spot":false,"number":0,"booked_bikes":0,"bikes":1,"bikes_available_to_rent":1,"bike_racks":0,"free_racks":0,"special_racks":0,"free_special_racks":0,"maintenance":false,"terminal_type":"","bike_list":[{"number":"44856","bike_type":71,"lock_types":["frame_lock"],"active":true,"state":"ok","electric_lock":true,"boardcomputer":7551063508,"pedelec_battery":null,"battery_pack":null}],"bike_numbers":["44856"],"bike_types":{"71":1},"place_type":"12","rack_locks":false},{"uid":45764776,"lat":50.763827,"lng":7.053206,"bike":true,"name":"BIKE 45457","address":null,"spot":false,"number":0,"booked_bikes":0,"bikes":1,"bikes_available_to_rent":1,"bike_racks":0,"free_racks":0,"special_racks":0,"free_special_racks":0,"maintenance":false,"terminal_type":"","bike_list":[{"number":"45457","bike_type":71,"lock_types":["frame_lock"],"active":true,"state":"ok","electric_lock":true,"boardcomputer":7551006756,"pedelec_battery":null,"battery_pack":null}],"bike_numbers":["45457"],"bike_types":{"71":1},"place_type":"12","rack_locks":false},{"uid":45803447,"lat":50.763502,"lng":7.125992,"bike":true,"name":"BIKE 45388","address":null,"spot":false,"number":0,"booked_bikes":0,"bikes":1,"bikes_available_to_rent":1,"bike_racks":0,"free_racks":0,"special_racks":0,"free_special_racks":0,"maintenance":false,"terminal_type":"","bike_list":[{"number":"45388","bike_type":71,"lock_types":["frame_lock"],"active":true,"state":"ok","electric_lock":true,"boardcomputer":7551006933,"pedelec_battery":null,"battery_pack":null}],"bike_numbers":["45388"],"bike_types":{"71":1},"place_type":"12","rack_locks":false},{"uid":45806646,"lat":50.705689,"lng":7.156725,"bike":true,"name":"BIKE 45443","address":null,"spot":false,"number":0,"booked_bikes":0,"bikes":1,"bikes_available_to_rent":1,"bike_racks":0,"free_racks":0,"special_racks":0,"free_special_racks":0,"maintenance":false,"terminal_type":"","bike_list":[{"number":"45443","bike_type":71,"lock_types":["frame_lock"],"active":true,"state":"ok","electric_lock":true,"boardcomputer":7551015028,"pedelec_battery":null,"battery_pack":null}],"bike_numbers":["45443"],"bike_types":{"71":1},"place_type":"12","rack_locks":false},{"uid":45809489,"lat":50.675898,"lng":7.142812,"bike":true,"name":"BIKE 45384","address":null,"spot":false,"number":0,"booked_bikes":0,"bikes":1,"bikes_available_to_rent":1,"bike_racks":0,"free_racks":0,"special_racks":0,"free_special_racks":0,"maintenance":false,"terminal_type":"","bike_list":[{"number":"45384","bike_type":71,"lock_types":["frame_lock"],"active":true,"state":"ok","electric_lock":true,"boardcomputer":7551014010,"pedelec_battery":null,"battery_pack":null}],"bike_numbers":["45384"],"bike_types":{"71":1},"place_type":"12","rack_locks":false},{"uid":45810527,"lat":50.718729,"lng":7.161078,"bike":true,"name":"BIKE 44933","address":null,"spot":false,"number":0,"booked_bikes":0,"bikes":1,"bikes_available_to_rent":1,"bike_racks":0,"free_racks":0,"special_racks":0,"free_special_racks":0,"maintenance":false,"terminal_type":"","bike_list":[{"number":"44933","bike_type":71,"lock_types":["frame_lock"],"active":true,"state":"ok","electric_lock":true,"boardcomputer":7551063530,"pedelec_battery":null,"battery_pack":null}],"bike_numbers":["44933"],"bike_types":{"71":1},"place_type":"12","rack_locks":false},{"uid":45812098,"lat":50.712404,"lng":7.178457,"bike":true,"name":"BIKE 45502","address":null,"spot":false,"number":0,"booked_bikes":0,"bikes":1,"bikes_available_to_rent":1,"bike_racks":0,"free_racks":0,"special_racks":0,"free_special_racks":0,"maintenance":false,"terminal_type":"","bike_list":[{"number":"45502","bike_type":71,"lock_types":["frame_lock"],"active":true,"state":"ok","electric_lock":true,"boardcomputer":7551004515,"pedelec_battery":null,"battery_pack":null}],"bike_numbers":["45502"],"bike_types":{"71":1},"place_type":"12","rack_locks":false},{"uid":45816188,"lat":50.721702,"lng":7.142907,"bike":true,"name":"BIKE 45495","address":null,"spot":false,"number":0,"booked_bikes":0,"bikes":1,"bikes_available_to_rent":1,"bike_racks":0,"free_racks":0,"special_racks":0,"free_special_racks":0,"maintenance":false,"terminal_type":"","bike_list":[{"number":"45495","bike_type":71,"lock_types":["frame_lock"],"active":true,"state":"ok","electric_lock":true,"boardcomputer":7551057135,"pedelec_battery":null,"battery_pack":null}],"bike_numbers":["45495"],"bike_types":{"71":1},"place_type":"12","rack_locks":false},{"uid":45816983,"lat":50.723187,"lng":7.135782,"bike":true,"name":"BIKE 44551","address":null,"spot":false,"number":0,"booked_bikes":0,"bikes":1,"bikes_available_to_rent":1,"bike_racks":0,"free_racks":0,"special_racks":0,"free_special_racks":0,"maintenance":false,"terminal_type":"","bike_list":[{"number":"44551","bike_type":71,"lock_types":["frame_lock"],"active":true,"state":"ok","electric_lock":true,"boardcomputer":7551058318,"pedelec_battery":null,"battery_pack":null}],"bike_numbers":["44551"],"bike_types":{"71":1},"place_type":"12","rack_locks":false},{"uid":45821687,"lat":50.69588,"lng":7.158464,"bike":true,"name":"BIKE 45165","address":null,"spot":false,"number":0,"booked_bikes":0,"bikes":1,"bikes_available_to_rent":1,"bike_racks":0,"free_racks":0,"special_racks":0,"free_special_racks":0,"maintenance":false,"terminal_type":"","bike_list":[{"number":"45165","bike_type":71,"lock_types":["frame_lock"],"active":true,"state":"ok","electric_lock":true,"boardcomputer":7551019766,"pedelec_battery":null,"battery_pack":null}],"bike_numbers":["45165"],"bike_types":{"71":1},"place_type":"12","rack_locks":false},{"uid":45825131,"lat":50.751244,"lng":7.082534,"bike":true,"name":"BIKE 44678","address":null,"spot":false,"number":0,"booked_bikes":0,"bikes":1,"bikes_available_to_rent":1,"bike_racks":0,"free_racks":0,"special_racks":0,"free_special_racks":0,"maintenance":false,"terminal_type":"","bike_list":[{"number":"44678","bike_type":71,"lock_types":["frame_lock"],"active":true,"state":"ok","electric_lock":true,"boardcomputer":7551058245,"pedelec_battery":null,"battery_pack":null}],"bike_numbers":["44678"],"bike_types":{"71":1},"place_type":"12","rack_locks":false},{"uid":45829492,"lat":50.700067,"lng":7.158533,"bike":true,"name":"BIKE 45272","address":null,"spot":false,"number":0,"booked_bikes":0,"bikes":1,"bikes_available_to_rent":1,"bike_racks":0,"free_racks":0,"special_racks":0,"free_special_racks":0,"maintenance":false,"terminal_type":"","bike_list":[{"number":"45272","bike_type":71,"lock_types":["frame_lock"],"active":true,"state":"ok","electric_lock":true,"boardcomputer":7551003015,"pedelec_battery":null,"battery_pack":null}],"bike_numbers":["45272"],"bike_types":{"71":1},"place_type":"12","rack_locks":false},{"uid":45830737,"lat":50.707098,"lng":7.114236,"bike":true,"name":"BIKE 44831","address":null,"spot":false,"number":0,"booked_bikes":0,"bikes":1,"bikes_available_to_rent":1,"bike_racks":0,"free_racks":0,"special_racks":0,"free_special_racks":0,"maintenance":false,"terminal_type":"","bike_list":[{"number":"44831","bike_type":71,"lock_types":["frame_lock"],"active":true,"state":"ok","electric_lock":true,"boardcomputer":7551021902,"pedelec_battery":null,"battery_pack":null}],"bike_numbers":["44831"],"bike_types":{"71":1},"place_type":"12","rack_locks":false},{"uid":45833334,"lat":50.805298,"lng":7.188673,"bike":true,"name":"BIKE 530182","address":null,"spot":false,"number":0,"booked_bikes":0,"bikes":1,"bikes_available_to_rent":1,"bike_racks":0,"free_racks":0,"special_racks":0,"free_special_racks":0,"maintenance":false,"terminal_type":"","bike_list":[{"number":"530182","bike_type":150,"lock_types":["frame_lock"],"active":true,"state":"ok","electric_lock":true,"boardcomputer":7551060466,"pedelec_battery":null,"battery_pack":null}],"bike_numbers":["530182"],"bike_types":{"150":1},"place_type":"12","rack_locks":false},{"uid":45834652,"lat":50.738769,"lng":7.063788,"bike":true,"name":"BIKE 44803","address":null,"spot":false,"number":0,"booked_bikes":0,"bikes":1,"bikes_available_to_rent":1,"bike_racks":0,"free_racks":0,"special_racks":0,"free_special_racks":0,"maintenance":false,"terminal_type":"","bike_list":[{"number":"44803","bike_type":71,"lock_types":["frame_lock"],"active":true,"state":"ok","electric_lock":true,"boardcomputer":7551006931,"pedelec_battery":null,"battery_pack":null}],"bike_numbers":["44803"],"bike_types":{"71":1},"place_type":"12","rack_locks":false},{"uid":45835993,"lat":50.736191,"lng":7.043663,"bike":true,"name":"BIKE 44951","address":null,"spot":false,"number":0,"booked_bikes":0,"bikes":1,"bikes_available_to_rent":1,"bike_racks":0,"free_racks":0,"special_racks":0,"free_special_racks":0,"maintenance":false,"terminal_type":"","bike_list":[{"number":"44951","bike_type":71,"lock_types":["frame_lock"],"active":true,"state":"ok","electric_lock":true,"boardcomputer":7551015039,"pedelec_battery":null,"battery_pack":null}],"bike_numbers":["44951"],"bike_types":{"71":1},"place_type":"12","rack_locks":false},{"uid":45838523,"lat":50.756191,"lng":7.148972,"bike":true,"name":"BIKE 45089","address":null,"spot":false,"number":0,"booked_bikes":0,"bikes":1,"bikes_available_to_rent":1,"bike_racks":0,"free_racks":0,"special_racks":0,"free_special_racks":0,"maintenance":false,"terminal_type":"","bike_list":[{"number":"45089","bike_type":71,"lock_types":["frame_lock"],"active":true,"state":"ok","electric_lock":true,"boardcomputer":7551058723,"pedelec_battery":null,"battery_pack":null}],"bike_numbers":["45089"],"bike_types":{"71":1},"place_type":"12","rack_locks":false},{"uid":45840200,"lat":50.606893,"lng":6.98962,"bike":true,"name":"BIKE 46079","address":null,"spot":false,"number":0,"booked_bikes":0,"bikes":1,"bikes_available_to_rent":1,"bike_racks":0,"free_racks":0,"special_racks":0,"free_special_racks":0,"maintenance":false,"terminal_type":"","bike_list":[{"number":"46079","bike_type":143,"lock_types":["frame_lock"],"active":true,"state":"ok","electric_lock":true,"boardcomputer":7551069759,"pedelec_battery":67,"battery_pack":{"percentage":67}}],"bike_numbers":["46079"],"bike_types":{"143":1},"place_type":"20","rack_locks":false},{"uid":45840264,"lat":50.693373,"lng":7.163014,"bike":true,"name":"BIKE 44782","address":null,"spot":false,"number":0,"booked_bikes":0,"bikes":1,"bikes_available_to_rent":1,"bike_racks":0,"free_racks":0,"special_racks":0,"free_special_racks":0,"maintenance":false,"terminal_type":"","bike_list":[{"number":"44782","bike_type":71,"lock_types":["frame_lock"],"active":true,"state":"ok","electric_lock":true,"boardcomputer":7551004213,"pedelec_battery":null,"battery_pack":null}],"bike_numbers":["44782"],"bike_types":{"71":1},"place_type":"12","rack_locks":false},{"uid":45842849,"lat":50.75836,"lng":7.12834,"bike":true,"name":"BIKE 44582","address":null,"spot":false,"number":0,"booked_bikes":0,"bikes":1,"bikes_available_to_rent":1,"bike_racks":0,"free_racks":0,"special_racks":0,"free_special_racks":0,"maintenance":false,"terminal_type":"","bike_list":[{"number":"44582","bike_type":71,"lock_types":["frame_lock"],"active":true,"state":"ok","electric_lock":true,"boardcomputer":7551004920,"pedelec_battery":null,"battery_pack":null}],"bike_numbers":["44582"],"bike_types":{"71":1},"place_type":"12","rack_locks":false},{"uid":45845419,"lat":50.754102,"lng":7.140322,"bike":true,"name":"BIKE 44745","address":null,"spot":false,"number":0,"booked_bikes":0,"bikes":1,"bikes_available_to_rent":1,"bike_racks":0,"free_racks":0,"special_racks":0,"free_special_racks":0,"maintenance":false,"terminal_type":"","bike_list":[{"number":"44745","bike_type":71,"lock_types":["frame_lock"],"active":true,"state":"ok","electric_lock":true,"boardcomputer":7551057077,"pedelec_battery":null,"battery_pack":null}],"bike_numbers":["44745"],"bike_types":{"71":1},"place_type":"12","rack_locks":false},{"uid":45845646,"lat":50.712116,"lng":6.921685,"bike":true,"name":"BIKE 44725","address":null,"spot":false,"number":0,"booked_bikes":0,"bikes":1,"bikes_available_to_rent":1,"bike_racks":0,"free_racks":0,"special_racks":0,"free_special_racks":0,"maintenance":false,"terminal_type":"","bike_list":[{"number":"44725","bike_type":71,"lock_types":["frame_lock"],"active":true,"state":"ok","electric_lock":true,"boardcomputer":7551063524,"pedelec_battery":null,"battery_pack":null}],"bike_numbers":["44725"],"bike_types":{"71":1},"place_type":"12","rack_locks":false},{"uid":45845715,"lat":50.754582,"lng":7.039899,"bike":true,"name":"BIKE 45284","address":null,"spot":false,"number":0,"booked_bikes":0,"bikes":1,"bikes_available_to_rent":1,"bike_racks":0,"free_racks":0,"special_racks":0,"free_special_racks":0,"maintenance":false,"terminal_type":"","bike_list":[{"number":"45284","bike_type":71,"lock_types":["frame_lock"],"active":true,"state":"ok","electric_lock":true,"boardcomputer":7551059385,"pedelec_battery":null,"battery_pack":null}],"bike_numbers":["45284"],"bike_types":{"71":1},"place_type":"12","rack_locks":false},{"uid":45846869,"lat":50.734391,"lng":7.047684,"bike":true,"name":"BIKE 44518","address":null,"spot":false,"number":0,"booked_bikes":0,"bikes":1,"bikes_available_to_rent":1,"bike_racks":0,"free_racks":0,"special_racks":0,"free_special_racks":0,"maintenance":false,"terminal_type":"","bike_list":[{"number":"44518","bike_type":71,"lock_types":["frame_lock"],"active":true,"state":"ok","electric_lock":true,"boardcomputer":7551026308,"pedelec_battery":null,"battery_pack":null}],"bike_numbers":["44518"],"bike_types":{"71":1},"place_type":"12","rack_locks":false},{"uid":45847096,"lat":50.738916,"lng":7.063757,"bike":true,"name":"BIKE 45020","address":null,"spot":false,"number":0,"booked_bikes":0,"bikes":1,"bikes_available_to_rent":1,"bike_racks":0,"free_racks":0,"special_racks":0,"free_special_racks":0,"maintenance":false,"terminal_type":"","bike_list":[{"number":"45020","bike_type":71,"lock_types":["frame_lock"],"active":true,"state":"ok","electric_lock":true,"boardcomputer":7551036875,"pedelec_battery":null,"battery_pack":null}],"bike_numbers":["45020"],"bike_types":{"71":1},"place_type":"12","rack_locks":false},{"uid":45848092,"lat":50.719907,"lng":6.915202,"bike":true,"name":"BIKE 46083","address":null,"spot":false,"number":0,"booked_bikes":0,"bikes":1,"bikes_available_to_rent":1,"bike_racks":0,"free_racks":0,"special_racks":0,"free_special_racks":0,"maintenance":false,"terminal_type":"","bike_list":[{"number":"46083","bike_type":143,"lock_types":["frame_lock"],"active":true,"state":"ok","electric_lock":true,"boardcomputer":7551079688,"pedelec_battery":100,"battery_pack":{"percentage":100}}],"bike_numbers":["46083"],"bike_types":{"143":1},"place_type":"20","rack_locks":false},{"uid":45848115,"lat":50.75748,"lng":7.126488,"bike":true,"name":"BIKE 45352","address":null,"spot":false,"number":0,"booked_bikes":0,"bikes":1,"bikes_available_to_rent":1,"bike_racks":0,"free_racks":0,"special_racks":0,"free_special_racks":0,"maintenance":false,"terminal_type":"","bike_list":[{"number":"45352","bike_type":150,"lock_types":["frame_lock"],"active":true,"state":"ok","electric_lock":true,"boardcomputer":7551054042,"pedelec_battery":null,"battery_pack":null}],"bike_numbers":["45352"],"bike_types":{"150":1},"place_type":"12","rack_locks":false},{"uid":45849589,"lat":50.684018,"lng":7.171614,"bike":true,"name":"BIKE 44526","address":null,"spot":false,"number":0,"booked_bikes":0,"bikes":1,"bikes_available_to_rent":1,"bike_racks":0,"free_racks":0,"special_racks":0,"free_special_racks":0,"maintenance":false,"terminal_type":"","bike_list":[{"number":"44526","bike_type":71,"lock_types":["frame_lock"],"active":true,"state":"ok","electric_lock":true,"boardcomputer":7551004247,"pedelec_battery":null,"battery_pack":null}],"bike_numbers":["44526"],"bike_types":{"71":1},"place_type":"12","rack_locks":false},{"uid":45849853,"lat":50.695516,"lng":7.123653,"bike":true,"name":"BIKE 44750","address":null,"spot":false,"number":0,"booked_bikes":0,"bikes":1,"bikes_available_to_rent":1,"bike_racks":0,"free_racks":0,"special_racks":0,"free_special_racks":0,"maintenance":false,"terminal_type":"","bike_list":[{"number":"44750","bike_type":71,"lock_types":["frame_lock"],"active":true,"state":"ok","electric_lock":true,"boardcomputer":7551056680,"pedelec_battery":null,"battery_pack":null}],"bike_numbers":["44750"],"bike_types":{"71":1},"place_type":"12","rack_locks":false},{"uid":45850752,"lat":50.712324,"lng":7.127154,"bike":true,"name":"BIKE 44883","address":null,"spot":false,"number":0,"booked_bikes":0,"bikes":1,"bikes_available_to_rent":1,"bike_racks":0,"free_racks":0,"special_racks":0,"free_special_racks":0,"maintenance":false,"terminal_type":"","bike_list":[{"number":"44883","bike_type":71,"lock_types":["frame_lock"],"active":true,"state":"ok","electric_lock":true,"boardcomputer":7551058459,"pedelec_battery":null,"battery_pack":null}],"bike_numbers":["44883"],"bike_types":{"71":1},"place_type":"12","rack_locks":false},{"uid":45850917,"lat":50.731502,"lng":7.044034,"bike":true,"name":"BIKE 44557","address":null,"spot":false,"number":0,"booked_bikes":0,"bikes":1,"bikes_available_to_rent":1,"bike_racks":0,"free_racks":0,"special_racks":0,"free_special_racks":0,"maintenance":false,"terminal_type":"","bike_list":[{"number":"44557","bike_type":71,"lock_types":["frame_lock"],"active":true,"state":"ok","electric_lock":true,"boardcomputer":7551057130,"pedelec_battery":null,"battery_pack":null}],"bike_numbers":["44557"],"bike_types":{"71":1},"place_type":"12","rack_locks":false},{"uid":45851582,"lat":50.703378,"lng":7.159545,"bike":true,"name":"BIKE 45224","address":null,"spot":false,"number":0,"booked_bikes":0,"bikes":1,"bikes_available_to_rent":1,"bike_racks":0,"free_racks":0,"special_racks":0,"free_special_racks":0,"maintenance":false,"terminal_type":"","bike_list":[{"number":"45224","bike_type":71,"lock_types":["frame_lock"],"active":true,"state":"ok","electric_lock":true,"boardcomputer":7551012317,"pedelec_battery":null,"battery_pack":null}],"bike_numbers":["45224"],"bike_types":{"71":1},"place_type":"12","rack_locks":false},{"uid":45854071,"lat":50.702947,"lng":7.103982,"bike":true,"name":"BIKE 45253","address":null,"spot":false,"number":0,"booked_bikes":0,"bikes":1,"bikes_available_to_rent":1,"bike_racks":0,"free_racks":0,"special_racks":0,"free_special_racks":0,"maintenance":false,"terminal_type":"","bike_list":[{"number":"45253","bike_type":71,"lock_types":["frame_lock"],"active":true,"state":"ok","electric_lock":true,"boardcomputer":7551014600,"pedelec_battery":null,"battery_pack":null}],"bike_numbers":["45253"],"bike_types":{"71":1},"place_type":"12","rack_locks":false},{"uid":45854622,"lat":50.710378,"lng":7.184488,"bike":true,"name":"BIKE 45098","address":null,"spot":false,"number":0,"booked_bikes":0,"bikes":1,"bikes_available_to_rent":1,"bike_racks":0,"free_racks":0,"special_racks":0,"free_special_racks":0,"maintenance":false,"terminal_type":"","bike_list":[{"number":"45098","bike_type":71,"lock_types":["frame_lock"],"active":true,"state":"ok","electric_lock":true,"boardcomputer":7551013828,"pedelec_battery":null,"battery_pack":null}],"bike_numbers":["45098"],"bike_types":{"71":1},"place_type":"12","rack_locks":false},{"uid":45854849,"lat":50.701596,"lng":7.14422,"bike":true,"name":"BIKE 45241","address":null,"spot":false,"number":0,"booked_bikes":0,"bikes":1,"bikes_available_to_rent":1,"bike_racks":0,"free_racks":0,"special_racks":0,"free_special_racks":0,"maintenance":false,"terminal_type":"","bike_list":[{"number":"45241","bike_type":71,"lock_types":["frame_lock"],"active":true,"state":"ok","electric_lock":true,"boardcomputer":7551004752,"pedelec_battery":null,"battery_pack":null}],"bike_numbers":["45241"],"bike_types":{"71":1},"place_type":"12","rack_locks":false},{"uid":45855198,"lat":50.667711,"lng":7.187823,"bike":true,"name":"BIKE 45026","address":null,"spot":false,"number":0,"booked_bikes":0,"bikes":1,"bikes_available_to_rent":1,"bike_racks":0,"free_racks":0,"special_racks":0,"free_special_racks":0,"maintenance":false,"terminal_type":"","bike_list":[{"number":"45026","bike_type":71,"lock_types":["frame_lock"],"active":true,"state":"ok","electric_lock":true,"boardcomputer":7551057008,"pedelec_battery":null,"battery_pack":null}],"bike_numbers":["45026"],"bike_types":{"71":1},"place_type":"12","rack_locks":false},{"uid":45857026,"lat":50.747431,"lng":7.050568,"bike":true,"name":"BIKE 45471","address":null,"spot":false,"number":0,"booked_bikes":0,"bikes":1,"bikes_available_to_rent":1,"bike_racks":0,"free_racks":0,"special_racks":0,"free_special_racks":0,"maintenance":false,"terminal_type":"","bike_list":[{"number":"45471","bike_type":71,"lock_types":["frame_lock"],"active":true,"state":"ok","electric_lock":true,"boardcomputer":7551013171,"pedelec_battery":null,"battery_pack":null}],"bike_numbers":["45471"],"bike_types":{"71":1},"place_type":"12","rack_locks":false},{"uid":45857502,"lat":50.757382,"lng":7.055673,"bike":true,"name":"BIKE 44865","address":null,"spot":false,"number":0,"booked_bikes":0,"bikes":1,"bikes_available_to_rent":1,"bike_racks":0,"free_racks":0,"special_racks":0,"free_special_racks":0,"maintenance":false,"terminal_type":"","bike_list":[{"number":"44865","bike_type":71,"lock_types":["frame_lock"],"active":true,"state":"ok","electric_lock":true,"boardcomputer":7551012703,"pedelec_battery":null,"battery_pack":null}],"bike_numbers":["44865"],"bike_types":{"71":1},"place_type":"12","rack_locks":false},{"uid":45857817,"lat":50.699844,"lng":7.111148,"bike":true,"name":"BIKE 44553","address":null,"spot":false,"number":0,"booked_bikes":0,"bikes":1,"bikes_available_to_rent":1,"bike_racks":0,"free_racks":0,"special_racks":0,"free_special_racks":0,"maintenance":false,"terminal_type":"","bike_list":[{"number":"44553","bike_type":71,"lock_types":["frame_lock"],"active":true,"state":"ok","electric_lock":true,"boardcomputer":7551004784,"pedelec_battery":null,"battery_pack":null}],"bike_numbers":["44553"],"bike_types":{"71":1},"place_type":"12","rack_locks":false},{"uid":45858409,"lat":50.6736,"lng":7.06667,"bike":true,"name":"BIKE 44749","address":null,"spot":false,"number":0,"booked_bikes":0,"bikes":1,"bikes_available_to_rent":1,"bike_racks":0,"free_racks":0,"special_racks":0,"free_special_racks":0,"maintenance":false,"terminal_type":"","bike_list":[{"number":"44749","bike_type":71,"lock_types":["frame_lock"],"active":true,"state":"ok","electric_lock":true,"boardcomputer":7551013058,"pedelec_battery":null,"battery_pack":null}],"bike_numbers":["44749"],"bike_types":{"71":1},"place_type":"12","rack_locks":false},{"uid":45858804,"lat":50.702924,"lng":7.148452,"bike":true,"name":"BIKE 44908","address":null,"spot":false,"number":0,"booked_bikes":0,"bikes":1,"bikes_available_to_rent":1,"bike_racks":0,"free_racks":0,"special_racks":0,"free_special_racks":0,"maintenance":false,"terminal_type":"","bike_list":[{"number":"44908","bike_type":71,"lock_types":["frame_lock"],"active":true,"state":"ok","electric_lock":true,"boardcomputer":7551013175,"pedelec_battery":null,"battery_pack":null}],"bike_numbers":["44908"],"bike_types":{"71":1},"place_type":"12","rack_locks":false},{"uid":45859598,"lat":50.694018,"lng":7.120923,"bike":true,"name":"BIKE 45012","address":null,"spot":false,"number":0,"booked_bikes":0,"bikes":1,"bikes_available_to_rent":1,"bike_racks":0,"free_racks":0,"special_racks":0,"free_special_racks":0,"maintenance":false,"terminal_type":"","bike_list":[{"number":"45012","bike_type":71,"lock_types":["frame_lock"],"active":true,"state":"ok","electric_lock":true,"boardcomputer":7551058068,"pedelec_battery":null,"battery_pack":null}],"bike_numbers":["45012"],"bike_types":{"71":1},"place_type":"12","rack_locks":false},{"uid":45859684,"lat":50.708898,"lng":7.154256,"bike":true,"name":"BIKE 44542","address":null,"spot":false,"number":0,"booked_bikes":0,"bikes":1,"bikes_available_to_rent":1,"bike_racks":0,"free_racks":0,"special_racks":0,"free_special_racks":0,"maintenance":false,"terminal_type":"","bike_list":[{"number":"44542","bike_type":71,"lock_types":["frame_lock"],"active":true,"state":"ok","electric_lock":true,"boardcomputer":7551013432,"pedelec_battery":null,"battery_pack":null}],"bike_numbers":["44542"],"bike_types":{"71":1},"place_type":"12","rack_locks":false},{"uid":45859755,"lat":50.754724,"lng":7.087576,"bike":true,"name":"BIKE 44923","address":null,"spot":false,"number":0,"booked_bikes":0,"bikes":1,"bikes_available_to_rent":1,"bike_racks":0,"free_racks":0,"special_racks":0,"free_special_racks":0,"maintenance":false,"terminal_type":"","bike_list":[{"number":"44923","bike_type":71,"lock_types":["frame_lock"],"active":true,"state":"ok","electric_lock":true,"boardcomputer":7551014688,"pedelec_battery":null,"battery_pack":null}],"bike_numbers":["44923"],"bike_types":{"71":1},"place_type":"12","rack_locks":false},{"uid":45859858,"lat":50.683782,"lng":7.175102,"bike":true,"name":"BIKE 44566","address":null,"spot":false,"number":0,"booked_bikes":0,"bikes":1,"bikes_available_to_rent":1,"bike_racks":0,"free_racks":0,"special_racks":0,"free_special_racks":0,"maintenance":false,"terminal_type":"","bike_list":[{"number":"44566","bike_type":71,"lock_types":["frame_lock"],"active":true,"state":"ok","electric_lock":true,"boardcomputer":7551025493,"pedelec_battery":null,"battery_pack":null}],"bike_numbers":["44566"],"bike_types":{"71":1},"place_type":"12","rack_locks":false},{"uid":45860570,"lat":50.716982,"lng":7.043922,"bike":true,"name":"BIKE 44982","address":null,"spot":false,"number":0,"booked_bikes":0,"bikes":1,"bikes_available_to_rent":1,"bike_racks":0,"free_racks":0,"special_racks":0,"free_special_racks":0,"maintenance":false,"terminal_type":"","bike_list":[{"number":"44982","bike_type":71,"lock_types":["frame_lock"],"active":true,"state":"ok","electric_lock":true,"boardcomputer":7551057004,"pedelec_battery":null,"battery_pack":null}],"bike_numbers":["44982"],"bike_types":{"71":1},"place_type":"12","rack_locks":false},{"uid":45861783,"lat":50.681676,"lng":7.178212,"bike":true,"name":"BIKE 45351","address":null,"spot":false,"number":0,"booked_bikes":0,"bikes":1,"bikes_available_to_rent":1,"bike_racks":0,"free_racks":0,"special_racks":0,"free_special_racks":0,"maintenance":false,"terminal_type":"","bike_list":[{"number":"45351","bike_type":71,"lock_types":["frame_lock"],"active":true,"state":"ok","electric_lock":true,"boardcomputer":7551012756,"pedelec_battery":null,"battery_pack":null}],"bike_numbers":["45351"],"bike_types":{"71":1},"place_type":"12","rack_locks":false},{"uid":45861864,"lat":50.706778,"lng":7.145292,"bike":true,"name":"BIKE 44600","address":null,"spot":false,"number":0,"booked_bikes":0,"bikes":1,"bikes_available_to_rent":1,"bike_racks":0,"free_racks":0,"special_racks":0,"free_special_racks":0,"maintenance":false,"terminal_type":"","bike_list":[{"number":"44600","bike_type":71,"lock_types":["frame_lock"],"active":true,"state":"ok","electric_lock":true,"boardcomputer":7551006394,"pedelec_battery":null,"battery_pack":null}],"bike_numbers":["44600"],"bike_types":{"71":1},"place_type":"12","rack_locks":false},{"uid":45861953,"lat":50.662827,"lng":7.189682,"bike":true,"name":"BIKE 45290","address":null,"spot":false,"number":0,"booked_bikes":0,"bikes":1,"bikes_available_to_rent":1,"bike_racks":0,"free_racks":0,"special_racks":0,"free_special_racks":0,"maintenance":false,"terminal_type":"","bike_list":[{"number":"45290","bike_type":71,"lock_types":["frame_lock"],"active":true,"state":"ok","electric_lock":true,"boardcomputer":7551013511,"pedelec_battery":null,"battery_pack":null}],"bike_numbers":["45290"],"bike_types":{"71":1},"place_type":"12","rack_locks":false},{"uid":45862704,"lat":50.755049,"lng":7.1483,"bike":true,"name":"BIKE 45367","address":null,"spot":false,"number":0,"booked_bikes":0,"bikes":1,"bikes_available_to_rent":1,"bike_racks":0,"free_racks":0,"special_racks":0,"free_special_racks":0,"maintenance":false,"terminal_type":"","bike_list":[{"number":"45367","bike_type":71,"lock_types":["frame_lock"],"active":true,"state":"ok","electric_lock":true,"boardcomputer":7551057129,"pedelec_battery":null,"battery_pack":null}],"bike_numbers":["45367"],"bike_types":{"71":1},"place_type":"12","rack_locks":false},{"uid":45862709,"lat":50.698133,"lng":7.15785,"bike":true,"name":"BIKE 45129","address":null,"spot":false,"number":0,"booked_bikes":0,"bikes":1,"bikes_available_to_rent":1,"bike_racks":0,"free_racks":0,"special_racks":0,"free_special_racks":0,"maintenance":false,"terminal_type":"","bike_list":[{"number":"45129","bike_type":71,"lock_types":["frame_lock"],"active":true,"state":"ok","electric_lock":true,"boardcomputer":7551013770,"pedelec_battery":null,"battery_pack":null}],"bike_numbers":["45129"],"bike_types":{"71":1},"place_type":"12","rack_locks":false},{"uid":45863040,"lat":50.701947,"lng":7.148256,"bike":true,"name":"BIKE 45398","address":null,"spot":false,"number":0,"booked_bikes":0,"bikes":1,"bikes_available_to_rent":1,"bike_racks":0,"free_racks":0,"special_racks":0,"free_special_racks":0,"maintenance":false,"terminal_type":"","bike_list":[{"number":"45398","bike_type":71,"lock_types":["frame_lock"],"active":true,"state":"ok","electric_lock":true,"boardcomputer":7551057921,"pedelec_battery":null,"battery_pack":null}],"bike_numbers":["45398"],"bike_types":{"71":1},"place_type":"12","rack_locks":false},{"uid":45863528,"lat":50.692538,"lng":7.090132,"bike":true,"name":"BIKE 45410","address":null,"spot":false,"number":0,"booked_bikes":0,"bikes":1,"bikes_available_to_rent":1,"bike_racks":0,"free_racks":0,"special_racks":0,"free_special_racks":0,"maintenance":false,"terminal_type":"","bike_list":[{"number":"45410","bike_type":71,"lock_types":["frame_lock"],"active":true,"state":"ok","electric_lock":true,"boardcomputer":7551055520,"pedelec_battery":null,"battery_pack":null}],"bike_numbers":["45410"],"bike_types":{"71":1},"place_type":"12","rack_locks":false},{"uid":45863592,"lat":50.762458,"lng":7.051468,"bike":true,"name":"BIKE 44845","address":null,"spot":false,"number":0,"booked_bikes":0,"bikes":1,"bikes_available_to_rent":1,"bike_racks":0,"free_racks":0,"special_racks":0,"free_special_racks":0,"maintenance":false,"terminal_type":"","bike_list":[{"number":"44845","bike_type":71,"lock_types":["frame_lock"],"active":true,"state":"ok","electric_lock":true,"boardcomputer":7551021403,"pedelec_battery":null,"battery_pack":null}],"bike_numbers":["44845"],"bike_types":{"71":1},"place_type":"12","rack_locks":false},{"uid":45863616,"lat":50.721262,"lng":7.065544,"bike":true,"name":"BIKE 44849","address":null,"spot":false,"number":0,"booked_bikes":0,"bikes":1,"bikes_available_to_rent":1,"bike_racks":0,"free_racks":0,"special_racks":0,"free_special_racks":0,"maintenance":false,"terminal_type":"","bike_list":[{"number":"44849","bike_type":71,"lock_types":["frame_lock"],"active":true,"state":"ok","electric_lock":true,"boardcomputer":7551003391,"pedelec_battery":null,"battery_pack":null}],"bike_numbers":["44849"],"bike_types":{"71":1},"place_type":"12","rack_locks":false},{"uid":45863864,"lat":50.754538,"lng":7.094572,"bike":true,"name":"BIKE 45103","address":null,"spot":false,"number":0,"booked_bikes":0,"bikes":1,"bikes_available_to_rent":1,"bike_racks":0,"free_racks":0,"special_racks":0,"free_special_racks":0,"maintenance":false,"terminal_type":"","bike_list":[{"number":"45103","bike_type":71,"lock_types":["frame_lock"],"active":true,"state":"ok","electric_lock":true,"boardcomputer":7551015780,"pedelec_battery":null,"battery_pack":null}],"bike_numbers":["45103"],"bike_types":{"71":1},"place_type":"12","rack_locks":false},{"uid":45864597,"lat":50.740502,"lng":7.067374,"bike":true,"name":"BIKE 44764","address":null,"spot":false,"number":0,"booked_bikes":0,"bikes":1,"bikes_available_to_rent":1,"bike_racks":0,"free_racks":0,"special_racks":0,"free_special_racks":0,"maintenance":false,"terminal_type":"","bike_list":[{"number":"44764","bike_type":71,"lock_types":["frame_lock"],"active":true,"state":"ok","electric_lock":true,"boardcomputer":7551013348,"pedelec_battery":null,"battery_pack":null}],"bike_numbers":["44764"],"bike_types":{"71":1},"place_type":"12","rack_locks":false},{"uid":45864758,"lat":50.678116,"lng":7.071238,"bike":true,"name":"BIKE 44644","address":null,"spot":false,"number":0,"booked_bikes":0,"bikes":1,"bikes_available_to_rent":1,"bike_racks":0,"free_racks":0,"special_racks":0,"free_special_racks":0,"maintenance":false,"terminal_type":"","bike_list":[{"number":"44644","bike_type":71,"lock_types":["frame_lock"],"active":true,"state":"ok","electric_lock":true,"boardcomputer":7551057009,"pedelec_battery":null,"battery_pack":null}],"bike_numbers":["44644"],"bike_types":{"71":1},"place_type":"12","rack_locks":false},{"uid":45864906,"lat":50.700422,"lng":7.159829,"bike":true,"name":"BIKE 44699","address":null,"spot":false,"number":0,"booked_bikes":0,"bikes":1,"bikes_available_to_rent":1,"bike_racks":0,"free_racks":0,"special_racks":0,"free_special_racks":0,"maintenance":false,"terminal_type":"","bike_list":[{"number":"44699","bike_type":71,"lock_types":["frame_lock"],"active":true,"state":"ok","electric_lock":true,"boardcomputer":7551029326,"pedelec_battery":null,"battery_pack":null}],"bike_numbers":["44699"],"bike_types":{"71":1},"place_type":"12","rack_locks":false},{"uid":45864918,"lat":50.693849,"lng":7.164001,"bike":true,"name":"BIKE 44742","address":null,"spot":false,"number":0,"booked_bikes":0,"bikes":1,"bikes_available_to_rent":1,"bike_racks":0,"free_racks":0,"special_racks":0,"free_special_racks":0,"maintenance":false,"terminal_type":"","bike_list":[{"number":"44742","bike_type":71,"lock_types":["frame_lock"],"active":true,"state":"ok","electric_lock":true,"boardcomputer":7551059377,"pedelec_battery":null,"battery_pack":null}],"bike_numbers":["44742"],"bike_types":{"71":1},"place_type":"12","rack_locks":false},{"uid":45865026,"lat":50.759204,"lng":7.125749,"bike":true,"name":"BIKE 45155","address":null,"spot":false,"number":0,"booked_bikes":0,"bikes":1,"bikes_available_to_rent":1,"bike_racks":0,"free_racks":0,"special_racks":0,"free_special_racks":0,"maintenance":false,"terminal_type":"","bike_list":[{"number":"45155","bike_type":71,"lock_types":["frame_lock"],"active":true,"state":"ok","electric_lock":true,"boardcomputer":7551047842,"pedelec_battery":null,"battery_pack":null}],"bike_numbers":["45155"],"bike_types":{"71":1},"place_type":"12","rack_locks":false},{"uid":45867853,"lat":50.720329,"lng":7.143212,"bike":true,"name":"BIKE 44881","address":null,"spot":false,"number":0,"booked_bikes":0,"bikes":1,"bikes_available_to_rent":1,"bike_racks":0,"free_racks":0,"special_racks":0,"free_special_racks":0,"maintenance":false,"terminal_type":"","bike_list":[{"number":"44881","bike_type":71,"lock_types":["frame_lock"],"active":true,"state":"ok","electric_lock":true,"boardcomputer":7551003282,"pedelec_battery":null,"battery_pack":null}],"bike_numbers":["44881"],"bike_types":{"71":1},"place_type":"12","rack_locks":false},{"uid":45867884,"lat":50.720329,"lng":7.143152,"bike":true,"name":"BIKE 45185","address":null,"spot":false,"number":0,"booked_bikes":0,"bikes":1,"bikes_available_to_rent":1,"bike_racks":0,"free_racks":0,"special_racks":0,"free_special_racks":0,"maintenance":false,"terminal_type":"","bike_list":[{"number":"45185","bike_type":71,"lock_types":["frame_lock"],"active":true,"state":"ok","electric_lock":true,"boardcomputer":7551061560,"pedelec_battery":null,"battery_pack":null}],"bike_numbers":["45185"],"bike_types":{"71":1},"place_type":"12","rack_locks":false},{"uid":45867926,"lat":50.720351,"lng":7.14321,"bike":true,"name":"BIKE 45207","address":null,"spot":false,"number":0,"booked_bikes":0,"bikes":1,"bikes_available_to_rent":1,"bike_racks":0,"free_racks":0,"special_racks":0,"free_special_racks":0,"maintenance":false,"terminal_type":"","bike_list":[{"number":"45207","bike_type":71,"lock_types":["frame_lock"],"active":true,"state":"ok","electric_lock":true,"boardcomputer":7551012320,"pedelec_battery":null,"battery_pack":null}],"bike_numbers":["45207"],"bike_types":{"71":1},"place_type":"12","rack_locks":false},{"uid":45868108,"lat":50.755747,"lng":7.090797,"bike":true,"name":"BIKE 45263","address":null,"spot":false,"number":0,"booked_bikes":0,"bikes":1,"bikes_available_to_rent":1,"bike_racks":0,"free_racks":0,"special_racks":0,"free_special_racks":0,"maintenance":false,"terminal_type":"","bike_list":[{"number":"45263","bike_type":71,"lock_types":["frame_lock"],"active":true,"state":"ok","electric_lock":true,"boardcomputer":7551057144,"pedelec_battery":null,"battery_pack":null}],"bike_numbers":["45263"],"bike_types":{"71":1},"place_type":"12","rack_locks":false},{"uid":45868321,"lat":50.745871,"lng":7.082512,"bike":true,"name":"BIKE 45048","address":null,"spot":false,"number":0,"booked_bikes":0,"bikes":1,"bikes_available_to_rent":1,"bike_racks":0,"free_racks":0,"special_racks":0,"free_special_racks":0,"maintenance":false,"terminal_type":"","bike_list":[{"number":"45048","bike_type":71,"lock_types":["frame_lock"],"active":true,"state":"ok","electric_lock":true,"boardcomputer":7551063950,"pedelec_battery":null,"battery_pack":null}],"bike_numbers":["45048"],"bike_types":{"71":1},"place_type":"12","rack_locks":false},{"uid":45868478,"lat":50.717796,"lng":7.150431,"bike":true,"name":"BIKE 44618","address":null,"spot":false,"number":0,"booked_bikes":0,"bikes":1,"bikes_available_to_rent":1,"bike_racks":0,"free_racks":0,"special_racks":0,"free_special_racks":0,"maintenance":false,"terminal_type":"","bike_list":[{"number":"44618","bike_type":71,"lock_types":["frame_lock"],"active":true,"state":"ok","electric_lock":true,"boardcomputer":7551063529,"pedelec_battery":null,"battery_pack":null}],"bike_numbers":["44618"],"bike_types":{"71":1},"place_type":"12","rack_locks":false},{"uid":45868637,"lat":50.683529,"lng":7.14676,"bike":true,"name":"BIKE 45067","address":null,"spot":false,"number":0,"booked_bikes":0,"bikes":1,"bikes_available_to_rent":1,"bike_racks":0,"free_racks":0,"special_racks":0,"free_special_racks":0,"maintenance":false,"terminal_type":"","bike_list":[{"number":"45067","bike_type":71,"lock_types":["frame_lock"],"active":true,"state":"ok","electric_lock":true,"boardcomputer":7551004636,"pedelec_battery":null,"battery_pack":null}],"bike_numbers":["45067"],"bike_types":{"71":1},"place_type":"12","rack_locks":false},{"uid":45868685,"lat":50.710978,"lng":7.164046,"bike":true,"name":"BIKE 45295","address":null,"spot":false,"number":0,"booked_bikes":0,"bikes":1,"bikes_available_to_rent":1,"bike_racks":0,"free_racks":0,"special_racks":0,"free_special_racks":0,"maintenance":false,"terminal_type":"","bike_list":[{"number":"45295","bike_type":71,"lock_types":["frame_lock"],"active":true,"state":"ok","electric_lock":true,"boardcomputer":7551012818,"pedelec_battery":null,"battery_pack":null}],"bike_numbers":["45295"],"bike_types":{"71":1},"place_type":"12","rack_locks":false},{"uid":45869173,"lat":50.731804,"lng":7.147416,"bike":true,"name":"BIKE 45161","address":null,"spot":false,"number":0,"booked_bikes":0,"bikes":1,"bikes_available_to_rent":1,"bike_racks":0,"free_racks":0,"special_racks":0,"free_special_racks":0,"maintenance":false,"terminal_type":"","bike_list":[{"number":"45161","bike_type":71,"lock_types":["frame_lock"],"active":true,"state":"ok","electric_lock":true,"boardcomputer":7551057037,"pedelec_battery":null,"battery_pack":null}],"bike_numbers":["45161"],"bike_types":{"71":1},"place_type":"12","rack_locks":false},{"uid":45869636,"lat":50.716831,"lng":7.042752,"bike":true,"name":"BIKE 44950","address":null,"spot":false,"number":0,"booked_bikes":0,"bikes":1,"bikes_available_to_rent":1,"bike_racks":0,"free_racks":0,"special_racks":0,"free_special_racks":0,"maintenance":false,"terminal_type":"","bike_list":[{"number":"44950","bike_type":71,"lock_types":["frame_lock"],"active":true,"state":"ok","electric_lock":true,"boardcomputer":7551056649,"pedelec_battery":null,"battery_pack":null}],"bike_numbers":["44950"],"bike_types":{"71":1},"place_type":"12","rack_locks":false},{"uid":45870207,"lat":50.746173,"lng":7.179344,"bike":true,"name":"BIKE 45232","address":null,"spot":false,"number":0,"booked_bikes":0,"bikes":1,"bikes_available_to_rent":1,"bike_racks":0,"free_racks":0,"special_racks":0,"free_special_racks":0,"maintenance":false,"terminal_type":"","bike_list":[{"number":"45232","bike_type":71,"lock_types":["frame_lock"],"active":true,"state":"ok","electric_lock":true,"boardcomputer":7551058065,"pedelec_battery":null,"battery_pack":null}],"bike_numbers":["45232"],"bike_types":{"71":1},"place_type":"12","rack_locks":false},{"uid":45870221,"lat":50.72496,"lng":7.147003,"bike":true,"name":"BIKE 45190","address":null,"spot":false,"number":0,"booked_bikes":0,"bikes":1,"bikes_available_to_rent":1,"bike_racks":0,"free_racks":0,"special_racks":0,"free_special_racks":0,"maintenance":false,"terminal_type":"","bike_list":[{"number":"45190","bike_type":71,"lock_types":["frame_lock"],"active":true,"state":"ok","electric_lock":true,"boardcomputer":7551004387,"pedelec_battery":null,"battery_pack":null}],"bike_numbers":["45190"],"bike_types":{"71":1},"place_type":"12","rack_locks":false},{"uid":45870709,"lat":50.745404,"lng":7.066664,"bike":true,"name":"BIKE 45313","address":null,"spot":false,"number":0,"booked_bikes":0,"bikes":1,"bikes_available_to_rent":1,"bike_racks":0,"free_racks":0,"special_racks":0,"free_special_racks":0,"maintenance":false,"terminal_type":"","bike_list":[{"number":"45313","bike_type":71,"lock_types":["frame_lock"],"active":true,"state":"ok","electric_lock":true,"boardcomputer":7551057145,"pedelec_battery":null,"battery_pack":null}],"bike_numbers":["45313"],"bike_types":{"71":1},"place_type":"12","rack_locks":false},{"uid":45870870,"lat":50.701822,"lng":7.1178,"bike":true,"name":"BIKE 44636","address":null,"spot":false,"number":0,"booked_bikes":0,"bikes":1,"bikes_available_to_rent":1,"bike_racks":0,"free_racks":0,"special_racks":0,"free_special_racks":0,"maintenance":false,"terminal_type":"","bike_list":[{"number":"44636","bike_type":71,"lock_types":["frame_lock"],"active":true,"state":"ok","electric_lock":true,"boardcomputer":7551056884,"pedelec_battery":null,"battery_pack":null}],"bike_numbers":["44636"],"bike_types":{"71":1},"place_type":"12","rack_locks":false},{"uid":45870874,"lat":50.724862,"lng":7.068536,"bike":true,"name":"BIKE 45063","address":null,"spot":false,"number":0,"booked_bikes":0,"bikes":1,"bikes_available_to_rent":1,"bike_racks":0,"free_racks":0,"special_racks":0,"free_special_racks":0,"maintenance":false,"terminal_type":"","bike_list":[{"number":"45063","bike_type":71,"lock_types":["frame_lock"],"active":true,"state":"ok","electric_lock":true,"boardcomputer":7551057006,"pedelec_battery":null,"battery_pack":null}],"bike_numbers":["45063"],"bike_types":{"71":1},"place_type":"12","rack_locks":false},{"uid":45871647,"lat":50.758222,"lng":7.130752,"bike":true,"name":"BIKE 44602","address":null,"spot":false,"number":0,"booked_bikes":0,"bikes":1,"bikes_available_to_rent":1,"bike_racks":0,"free_racks":0,"special_racks":0,"free_special_racks":0,"maintenance":false,"terminal_type":"","bike_list":[{"number":"44602","bike_type":71,"lock_types":["frame_lock"],"active":true,"state":"ok","electric_lock":true,"boardcomputer":7551058653,"pedelec_battery":null,"battery_pack":null}],"bike_numbers":["44602"],"bike_types":{"71":1},"place_type":"12","rack_locks":false},{"uid":45871716,"lat":50.721716,"lng":7.142917,"bike":true,"name":"BIKE 45432","address":null,"spot":false,"number":0,"booked_bikes":0,"bikes":1,"bikes_available_to_rent":1,"bike_racks":0,"free_racks":0,"special_racks":0,"free_special_racks":0,"maintenance":false,"terminal_type":"","bike_list":[{"number":"45432","bike_type":71,"lock_types":["frame_lock"],"active":true,"state":"ok","electric_lock":true,"boardcomputer":7551047843,"pedelec_battery":null,"battery_pack":null}],"bike_numbers":["45432"],"bike_types":{"71":1},"place_type":"12","rack_locks":false},{"uid":45872328,"lat":50.744009,"lng":7.096585,"bike":true,"name":"BIKE 44874","address":null,"spot":false,"number":0,"booked_bikes":0,"bikes":1,"bikes_available_to_rent":1,"bike_racks":0,"free_racks":0,"special_racks":0,"free_special_racks":0,"maintenance":false,"terminal_type":"","bike_list":[{"number":"44874","bike_type":71,"lock_types":["frame_lock"],"active":true,"state":"ok","electric_lock":true,"boardcomputer":7551017787,"pedelec_battery":null,"battery_pack":null}],"bike_numbers":["44874"],"bike_types":{"71":1},"place_type":"12","rack_locks":false},{"uid":45872468,"lat":50.684676,"lng":7.073966,"bike":true,"name":"BIKE 44545","address":null,"spot":false,"number":0,"booked_bikes":0,"bikes":1,"bikes_available_to_rent":1,"bike_racks":0,"free_racks":0,"special_racks":0,"free_special_racks":0,"maintenance":false,"terminal_type":"","bike_list":[{"number":"44545","bike_type":71,"lock_types":["frame_lock"],"active":true,"state":"ok","electric_lock":true,"boardcomputer":7551056820,"pedelec_battery":null,"battery_pack":null}],"bike_numbers":["44545"],"bike_types":{"71":1},"place_type":"12","rack_locks":false},{"uid":45872752,"lat":50.769631,"lng":7.062312,"bike":true,"name":"BIKE 44640","address":null,"spot":false,"number":0,"booked_bikes":0,"bikes":1,"bikes_available_to_rent":1,"bike_racks":0,"free_racks":0,"special_racks":0,"free_special_racks":0,"maintenance":false,"terminal_type":"","bike_list":[{"number":"44640","bike_type":71,"lock_types":["frame_lock"],"active":true,"state":"ok","electric_lock":true,"boardcomputer":7551014679,"pedelec_battery":null,"battery_pack":null}],"bike_numbers":["44640"],"bike_types":{"71":1},"place_type":"12","rack_locks":false},{"uid":45872774,"lat":50.769618,"lng":7.062323,"bike":true,"name":"BIKE 45395","address":null,"spot":false,"number":0,"booked_bikes":0,"bikes":1,"bikes_available_to_rent":1,"bike_racks":0,"free_racks":0,"special_racks":0,"free_special_racks":0,"maintenance":false,"terminal_type":"","bike_list":[{"number":"45395","bike_type":71,"lock_types":["frame_lock"],"active":true,"state":"ok","electric_lock":true,"boardcomputer":7551013422,"pedelec_battery":null,"battery_pack":null}],"bike_numbers":["45395"],"bike_types":{"71":1},"place_type":"12","rack_locks":false},{"uid":45872811,"lat":50.715404,"lng":7.048985,"bike":true,"name":"BIKE 45188","address":null,"spot":false,"number":0,"booked_bikes":0,"bikes":1,"bikes_available_to_rent":1,"bike_racks":0,"free_racks":0,"special_racks":0,"free_special_racks":0,"maintenance":false,"terminal_type":"","bike_list":[{"number":"45188","bike_type":71,"lock_types":["frame_lock"],"active":true,"state":"ok","electric_lock":true,"boardcomputer":7551058210,"pedelec_battery":null,"battery_pack":null}],"bike_numbers":["45188"],"bike_types":{"71":1},"place_type":"12","rack_locks":false},{"uid":45873111,"lat":50.704516,"lng":7.112918,"bike":true,"name":"BIKE 44880","address":null,"spot":false,"number":0,"booked_bikes":0,"bikes":1,"bikes_available_to_rent":1,"bike_racks":0,"free_racks":0,"special_racks":0,"free_special_racks":0,"maintenance":false,"terminal_type":"","bike_list":[{"number":"44880","bike_type":71,"lock_types":["frame_lock"],"active":true,"state":"ok","electric_lock":true,"boardcomputer":7551036449,"pedelec_battery":null,"battery_pack":null}],"bike_numbers":["44880"],"bike_types":{"71":1},"place_type":"12","rack_locks":false},{"uid":45873223,"lat":50.752889,"lng":7.045369,"bike":true,"name":"BIKE 45445","address":null,"spot":false,"number":0,"booked_bikes":0,"bikes":1,"bikes_available_to_rent":1,"bike_racks":0,"free_racks":0,"special_racks":0,"free_special_racks":0,"maintenance":false,"terminal_type":"","bike_list":[{"number":"45445","bike_type":71,"lock_types":["frame_lock"],"active":true,"state":"ok","electric_lock":true,"boardcomputer":7551014689,"pedelec_battery":null,"battery_pack":null}],"bike_numbers":["45445"],"bike_types":{"71":1},"place_type":"12","rack_locks":false},{"uid":45874112,"lat":50.699773,"lng":7.191847,"bike":true,"name":"BIKE 44738","address":null,"spot":false,"number":0,"booked_bikes":0,"bikes":1,"bikes_available_to_rent":1,"bike_racks":0,"free_racks":0,"special_racks":0,"free_special_racks":0,"maintenance":false,"terminal_type":"","bike_list":[{"number":"44738","bike_type":71,"lock_types":["frame_lock"],"active":true,"state":"ok","electric_lock":true,"boardcomputer":7551003031,"pedelec_battery":null,"battery_pack":null}],"bike_numbers":["44738"],"bike_types":{"71":1},"place_type":"12","rack_locks":false},{"uid":45874325,"lat":50.729369,"lng":7.133539,"bike":true,"name":"BIKE 44833","address":null,"spot":false,"number":0,"booked_bikes":0,"bikes":1,"bikes_available_to_rent":1,"bike_racks":0,"free_racks":0,"special_racks":0,"free_special_racks":0,"maintenance":false,"terminal_type":"","bike_list":[{"number":"44833","bike_type":71,"lock_types":["frame_lock"],"active":true,"state":"ok","electric_lock":true,"boardcomputer":7551056650,"pedelec_battery":null,"battery_pack":null}],"bike_numbers":["44833"],"bike_types":{"71":1},"place_type":"12","rack_locks":false},{"uid":45874330,"lat":50.671409,"lng":7.18143,"bike":true,"name":"BIKE 45150","address":null,"spot":false,"number":0,"booked_bikes":0,"bikes":1,"bikes_available_to_rent":1,"bike_racks":0,"free_racks":0,"special_racks":0,"free_special_racks":0,"maintenance":false,"terminal_type":"","bike_list":[{"number":"45150","bike_type":71,"lock_types":["frame_lock"],"active":true,"state":"ok","electric_lock":true,"boardcomputer":7551061558,"pedelec_battery":null,"battery_pack":null}],"bike_numbers":["45150"],"bike_types":{"71":1},"place_type":"12","rack_locks":false},{"uid":45874397,"lat":50.74972,"lng":7.039147,"bike":true,"name":"BIKE 45508","address":null,"spot":false,"number":0,"booked_bikes":0,"bikes":1,"bikes_available_to_rent":1,"bike_racks":0,"free_racks":0,"special_racks":0,"free_special_racks":0,"maintenance":false,"terminal_type":"","bike_list":[{"number":"45508","bike_type":71,"lock_types":["frame_lock"],"active":true,"state":"ok","electric_lock":true,"boardcomputer":7551057061,"pedelec_battery":null,"battery_pack":null}],"bike_numbers":["45508"],"bike_types":{"71":1},"place_type":"12","rack_locks":false},{"uid":45874645,"lat":50.793458,"lng":7.204997,"bike":true,"name":"BIKE 530044","address":null,"spot":false,"number":0,"booked_bikes":0,"bikes":1,"bikes_available_to_rent":1,"bike_racks":0,"free_racks":0,"special_racks":0,"free_special_racks":0,"maintenance":false,"terminal_type":"","bike_list":[{"number":"530044","bike_type":150,"lock_types":["frame_lock"],"active":true,"state":"ok","electric_lock":true,"boardcomputer":7551062133,"pedelec_battery":null,"battery_pack":null}],"bike_numbers":["530044"],"bike_types":{"150":1},"place_type":"12","rack_locks":false},{"uid":45874728,"lat":50.681711,"lng":7.170923,"bike":true,"name":"BIKE 44732","address":null,"spot":false,"number":0,"booked_bikes":0,"bikes":1,"bikes_available_to_rent":1,"bike_racks":0,"free_racks":0,"special_racks":0,"free_special_racks":0,"maintenance":false,"terminal_type":"","bike_list":[{"number":"44732","bike_type":71,"lock_types":["frame_lock"],"active":true,"state":"ok","electric_lock":true,"boardcomputer":7551004823,"pedelec_battery":null,"battery_pack":null}],"bike_numbers":["44732"],"bike_types":{"71":1},"place_type":"12","rack_locks":false},{"uid":45874897,"lat":50.709733,"lng":7.152773,"bike":true,"name":"BIKE 44936","address":null,"spot":false,"number":0,"booked_bikes":0,"bikes":1,"bikes_available_to_rent":1,"bike_racks":0,"free_racks":0,"special_racks":0,"free_special_racks":0,"maintenance":false,"terminal_type":"","bike_list":[{"number":"44936","bike_type":71,"lock_types":["frame_lock"],"active":true,"state":"ok","electric_lock":true,"boardcomputer":7551007119,"pedelec_battery":null,"battery_pack":null}],"bike_numbers":["44936"],"bike_types":{"71":1},"place_type":"12","rack_locks":false},{"uid":45875025,"lat":50.668578,"lng":7.182174,"bike":true,"name":"BIKE 44612","address":null,"spot":false,"number":0,"booked_bikes":0,"bikes":1,"bikes_available_to_rent":1,"bike_racks":0,"free_racks":0,"special_racks":0,"free_special_racks":0,"maintenance":false,"terminal_type":"","bike_list":[{"number":"44612","bike_type":71,"lock_types":["frame_lock"],"active":true,"state":"ok","electric_lock":true,"boardcomputer":7551057023,"pedelec_battery":null,"battery_pack":null}],"bike_numbers":["44612"],"bike_types":{"71":1},"place_type":"12","rack_locks":false},{"uid":45875440,"lat":50.660027,"lng":7.192836,"bike":true,"name":"BIKE 44910","address":null,"spot":false,"number":0,"booked_bikes":0,"bikes":1,"bikes_available_to_rent":1,"bike_racks":0,"free_racks":0,"special_racks":0,"free_special_racks":0,"maintenance":false,"terminal_type":"","bike_list":[{"number":"44910","bike_type":71,"lock_types":["frame_lock"],"active":true,"state":"ok","electric_lock":true,"boardcomputer":7551063532,"pedelec_battery":null,"battery_pack":null}],"bike_numbers":["44910"],"bike_types":{"71":1},"place_type":"12","rack_locks":false},{"uid":45875481,"lat":50.709,"lng":7.069188,"bike":true,"name":"BIKE 44935","address":null,"spot":false,"number":0,"booked_bikes":0,"bikes":1,"bikes_available_to_rent":1,"bike_racks":0,"free_racks":0,"special_racks":0,"free_special_racks":0,"maintenance":false,"terminal_type":"","bike_list":[{"number":"44935","bike_type":71,"lock_types":["frame_lock"],"active":true,"state":"ok","electric_lock":true,"boardcomputer":7551063525,"pedelec_battery":null,"battery_pack":null}],"bike_numbers":["44935"],"bike_types":{"71":1},"place_type":"12","rack_locks":false},{"uid":45875686,"lat":50.694338,"lng":7.127397,"bike":true,"name":"BIKE 45293","address":null,"spot":false,"number":0,"booked_bikes":0,"bikes":1,"bikes_available_to_rent":1,"bike_racks":0,"free_racks":0,"special_racks":0,"free_special_racks":0,"maintenance":false,"terminal_type":"","bike_list":[{"number":"45293","bike_type":71,"lock_types":["frame_lock"],"active":true,"state":"ok","electric_lock":true,"boardcomputer":7551006737,"pedelec_battery":null,"battery_pack":null}],"bike_numbers":["45293"],"bike_types":{"71":1},"place_type":"12","rack_locks":false},{"uid":45875839,"lat":50.751627,"lng":7.175966,"bike":true,"name":"BIKE 44932","address":null,"spot":false,"number":0,"booked_bikes":0,"bikes":1,"bikes_available_to_rent":1,"bike_racks":0,"free_racks":0,"special_racks":0,"free_special_racks":0,"maintenance":false,"terminal_type":"","bike_list":[{"number":"44932","bike_type":71,"lock_types":["frame_lock"],"active":true,"state":"ok","electric_lock":true,"boardcomputer":7551006817,"pedelec_battery":null,"battery_pack":null}],"bike_numbers":["44932"],"bike_types":{"71":1},"place_type":"12","rack_locks":false},{"uid":45876038,"lat":50.726378,"lng":7.098227,"bike":true,"name":"BIKE 44901","address":null,"spot":false,"number":0,"booked_bikes":0,"bikes":1,"bikes_available_to_rent":1,"bike_racks":0,"free_racks":0,"special_racks":0,"free_special_racks":0,"maintenance":false,"terminal_type":"","bike_list":[{"number":"44901","bike_type":71,"lock_types":["frame_lock"],"active":true,"state":"ok","electric_lock":true,"boardcomputer":7551003669,"pedelec_battery":null,"battery_pack":null}],"bike_numbers":["44901"],"bike_types":{"71":1},"place_type":"12","rack_locks":false},{"uid":45876081,"lat":50.694369,"lng":7.185983,"bike":true,"name":"BIKE 45034","address":null,"spot":false,"number":0,"booked_bikes":0,"bikes":1,"bikes_available_to_rent":1,"bike_racks":0,"free_racks":0,"special_racks":0,"free_special_racks":0,"maintenance":false,"terminal_type":"","bike_list":[{"number":"45034","bike_type":71,"lock_types":["frame_lock"],"active":true,"state":"ok","electric_lock":true,"boardcomputer":7551013695,"pedelec_battery":null,"battery_pack":null}],"bike_numbers":["45034"],"bike_types":{"71":1},"place_type":"12","rack_locks":false},{"uid":45876114,"lat":50.624933,"lng":7.043187,"bike":true,"name":"BIKE 46099","address":null,"spot":false,"number":0,"booked_bikes":0,"bikes":1,"bikes_available_to_rent":1,"bike_racks":0,"free_racks":0,"special_racks":0,"free_special_racks":0,"maintenance":false,"terminal_type":"","bike_list":[{"number":"46099","bike_type":143,"lock_types":["frame_lock"],"active":true,"state":"ok","electric_lock":true,"boardcomputer":7551078814,"pedelec_battery":95,"battery_pack":{"percentage":95}}],"bike_numbers":["46099"],"bike_types":{"143":1},"place_type":"20","rack_locks":false},{"uid":45876180,"lat":50.733756,"lng":7.114701,"bike":true,"name":"BIKE 45524","address":null,"spot":false,"number":0,"booked_bikes":0,"bikes":1,"bikes_available_to_rent":1,"bike_racks":0,"free_racks":0,"special_racks":0,"free_special_racks":0,"maintenance":false,"terminal_type":"","bike_list":[{"number":"45524","bike_type":71,"lock_types":["frame_lock"],"active":true,"state":"ok","electric_lock":true,"boardcomputer":7551036583,"pedelec_battery":null,"battery_pack":null}],"bike_numbers":["45524"],"bike_types":{"71":1},"place_type":"12","rack_locks":false},{"uid":45876355,"lat":50.741569,"lng":7.054873,"bike":true,"name":"BIKE 45143","address":null,"spot":false,"number":0,"booked_bikes":0,"bikes":1,"bikes_available_to_rent":1,"bike_racks":0,"free_racks":0,"special_racks":0,"free_special_racks":0,"maintenance":false,"terminal_type":"","bike_list":[{"number":"45143","bike_type":71,"lock_types":["frame_lock"],"active":true,"state":"ok","electric_lock":true,"boardcomputer":7551059517,"pedelec_battery":null,"battery_pack":null}],"bike_numbers":["45143"],"bike_types":{"71":1},"place_type":"12","rack_locks":false},{"uid":45876379,"lat":50.707987,"lng":7.17362,"bike":true,"name":"BIKE 44579","address":null,"spot":false,"number":0,"booked_bikes":0,"bikes":1,"bikes_available_to_rent":1,"bike_racks":0,"free_racks":0,"special_racks":0,"free_special_racks":0,"maintenance":false,"terminal_type":"","bike_list":[{"number":"44579","bike_type":71,"lock_types":["frame_lock"],"active":true,"state":"ok","electric_lock":true,"boardcomputer":7551004898,"pedelec_battery":null,"battery_pack":null}],"bike_numbers":["44579"],"bike_types":{"71":1},"place_type":"12","rack_locks":false},{"uid":45876599,"lat":50.718729,"lng":7.161678,"bike":true,"name":"BIKE 44711","address":null,"spot":false,"number":0,"booked_bikes":0,"bikes":1,"bikes_available_to_rent":1,"bike_racks":0,"free_racks":0,"special_racks":0,"free_special_racks":0,"maintenance":false,"terminal_type":"","bike_list":[{"number":"44711","bike_type":71,"lock_types":["frame_lock"],"active":true,"state":"ok","electric_lock":true,"boardcomputer":7551012430,"pedelec_battery":null,"battery_pack":null}],"bike_numbers":["44711"],"bike_types":{"71":1},"place_type":"12","rack_locks":false},{"uid":45876621,"lat":50.709684,"lng":7.14026,"bike":true,"name":"BIKE 44709","address":null,"spot":false,"number":0,"booked_bikes":0,"bikes":1,"bikes_available_to_rent":1,"bike_racks":0,"free_racks":0,"special_racks":0,"free_special_racks":0,"maintenance":false,"terminal_type":"","bike_list":[{"number":"44709","bike_type":71,"lock_types":["frame_lock"],"active":true,"state":"ok","electric_lock":true,"boardcomputer":7551058067,"pedelec_battery":null,"battery_pack":null}],"bike_numbers":["44709"],"bike_types":{"71":1},"place_type":"12","rack_locks":false},{"uid":45876939,"lat":50.721747,"lng":7.142936,"bike":true,"name":"BIKE 45226","address":null,"spot":false,"number":0,"booked_bikes":0,"bikes":1,"bikes_available_to_rent":1,"bike_racks":0,"free_racks":0,"special_racks":0,"free_special_racks":0,"maintenance":false,"terminal_type":"","bike_list":[{"number":"45226","bike_type":71,"lock_types":["frame_lock"],"active":true,"state":"ok","electric_lock":true,"boardcomputer":7551056673,"pedelec_battery":null,"battery_pack":null}],"bike_numbers":["45226"],"bike_types":{"71":1},"place_type":"12","rack_locks":false},{"uid":45876947,"lat":50.721689,"lng":7.142953,"bike":true,"name":"BIKE 44943","address":null,"spot":false,"number":0,"booked_bikes":0,"bikes":1,"bikes_available_to_rent":1,"bike_racks":0,"free_racks":0,"special_racks":0,"free_special_racks":0,"maintenance":false,"terminal_type":"","bike_list":[{"number":"44943","bike_type":71,"lock_types":["frame_lock"],"active":true,"state":"ok","electric_lock":true,"boardcomputer":7551018130,"pedelec_battery":null,"battery_pack":null}],"bike_numbers":["44943"],"bike_types":{"71":1},"place_type":"12","rack_locks":false},{"uid":45877079,"lat":50.695836,"lng":7.127603,"bike":true,"name":"BIKE 45350","address":null,"spot":false,"number":0,"booked_bikes":0,"bikes":1,"bikes_available_to_rent":1,"bike_racks":0,"free_racks":0,"special_racks":0,"free_special_racks":0,"maintenance":false,"terminal_type":"","bike_list":[{"number":"45350","bike_type":71,"lock_types":["frame_lock"],"active":true,"state":"ok","electric_lock":true,"boardcomputer":7551058215,"pedelec_battery":null,"battery_pack":null}],"bike_numbers":["45350"],"bike_types":{"71":1},"place_type":"12","rack_locks":false},{"uid":45877155,"lat":50.713671,"lng":7.169377,"bike":true,"name":"BIKE 45411","address":null,"spot":false,"number":0,"booked_bikes":0,"bikes":1,"bikes_available_to_rent":1,"bike_racks":0,"free_racks":0,"special_racks":0,"free_special_racks":0,"maintenance":false,"terminal_type":"","bike_list":[{"number":"45411","bike_type":71,"lock_types":["frame_lock"],"active":true,"state":"ok","electric_lock":true,"boardcomputer":7551057859,"pedelec_battery":null,"battery_pack":null}],"bike_numbers":["45411"],"bike_types":{"71":1},"place_type":"12","rack_locks":false},{"uid":45877209,"lat":50.690364,"lng":7.170997,"bike":true,"name":"BIKE 44534","address":null,"spot":false,"number":0,"booked_bikes":0,"bikes":1,"bikes_available_to_rent":1,"bike_racks":0,"free_racks":0,"special_racks":0,"free_special_racks":0,"maintenance":false,"terminal_type":"","bike_list":[{"number":"44534","bike_type":71,"lock_types":["frame_lock"],"active":true,"state":"ok","electric_lock":true,"boardcomputer":7551056261,"pedelec_battery":null,"battery_pack":null}],"bike_numbers":["44534"],"bike_types":{"71":1},"place_type":"12","rack_locks":false},{"uid":45877261,"lat":50.74004,"lng":7.113035,"bike":true,"name":"BIKE 45528","address":null,"spot":false,"number":0,"booked_bikes":0,"bikes":1,"bikes_available_to_rent":1,"bike_racks":0,"free_racks":0,"special_racks":0,"free_special_racks":0,"maintenance":false,"terminal_type":"","bike_list":[{"number":"45528","bike_type":71,"lock_types":["frame_lock"],"active":true,"state":"ok","electric_lock":true,"boardcomputer":7551006197,"pedelec_battery":null,"battery_pack":null}],"bike_numbers":["45528"],"bike_types":{"71":1},"place_type":"12","rack_locks":false},{"uid":45877309,"lat":50.682138,"lng":7.153681,"bike":true,"name":"BIKE 44914","address":null,"spot":false,"number":0,"booked_bikes":0,"bikes":1,"bikes_available_to_rent":1,"bike_racks":0,"free_racks":0,"special_racks":0,"free_special_racks":0,"maintenance":false,"terminal_type":"","bike_list":[{"number":"44914","bike_type":71,"lock_types":["frame_lock"],"active":true,"state":"ok","electric_lock":true,"boardcomputer":7551012705,"pedelec_battery":null,"battery_pack":null}],"bike_numbers":["44914"],"bike_types":{"71":1},"place_type":"12","rack_locks":false},{"uid":45877314,"lat":50.739991,"lng":7.113027,"bike":true,"name":"BIKE 45461","address":null,"spot":false,"number":0,"booked_bikes":0,"bikes":1,"bikes_available_to_rent":1,"bike_racks":0,"free_racks":0,"special_racks":0,"free_special_racks":0,"maintenance":false,"terminal_type":"","bike_list":[{"number":"45461","bike_type":71,"lock_types":["frame_lock"],"active":true,"state":"ok","electric_lock":true,"boardcomputer":7551036699,"pedelec_battery":null,"battery_pack":null}],"bike_numbers":["45461"],"bike_types":{"71":1},"place_type":"12","rack_locks":false},{"uid":45877555,"lat":50.745627,"lng":7.120137,"bike":true,"name":"BIKE 44781","address":null,"spot":false,"number":0,"booked_bikes":0,"bikes":1,"bikes_available_to_rent":1,"bike_racks":0,"free_racks":0,"special_racks":0,"free_special_racks":0,"maintenance":false,"terminal_type":"","bike_list":[{"number":"44781","bike_type":71,"lock_types":["frame_lock"],"active":true,"state":"ok","electric_lock":true,"boardcomputer":7551056971,"pedelec_battery":null,"battery_pack":null}],"bike_numbers":["44781"],"bike_types":{"71":1},"place_type":"12","rack_locks":false},{"uid":45877828,"lat":50.719044,"lng":7.129104,"bike":true,"name":"BIKE 44799","address":null,"spot":false,"number":0,"booked_bikes":0,"bikes":1,"bikes_available_to_rent":1,"bike_racks":0,"free_racks":0,"special_racks":0,"free_special_racks":0,"maintenance":false,"terminal_type":"","bike_list":[{"number":"44799","bike_type":71,"lock_types":["frame_lock"],"active":true,"state":"ok","electric_lock":true,"boardcomputer":7551057895,"pedelec_battery":null,"battery_pack":null}],"bike_numbers":["44799"],"bike_types":{"71":1},"place_type":"12","rack_locks":false},{"uid":45878132,"lat":50.683702,"lng":7.071467,"bike":true,"name":"BIKE 44654","address":null,"spot":false,"number":0,"booked_bikes":0,"bikes":1,"bikes_available_to_rent":1,"bike_racks":0,"free_racks":0,"special_racks":0,"free_special_racks":0,"maintenance":false,"terminal_type":"","bike_list":[{"number":"44654","bike_type":71,"lock_types":["frame_lock"],"active":true,"state":"ok","electric_lock":true,"boardcomputer":7551063503,"pedelec_battery":null,"battery_pack":null}],"bike_numbers":["44654"],"bike_types":{"71":1},"place_type":"12","rack_locks":false},{"uid":45878300,"lat":50.734267,"lng":7.105281,"bike":true,"name":"BIKE 44774","address":null,"spot":false,"number":0,"booked_bikes":0,"bikes":1,"bikes_available_to_rent":1,"bike_racks":0,"free_racks":0,"special_racks":0,"free_special_racks":0,"maintenance":false,"terminal_type":"","bike_list":[{"number":"44774","bike_type":71,"lock_types":["frame_lock"],"active":true,"state":"ok","electric_lock":true,"boardcomputer":7551004126,"pedelec_battery":null,"battery_pack":null}],"bike_numbers":["44774"],"bike_types":{"71":1},"place_type":"12","rack_locks":false},{"uid":45878535,"lat":50.696498,"lng":7.160113,"bike":true,"name":"BIKE 44628","address":null,"spot":false,"number":0,"booked_bikes":0,"bikes":1,"bikes_available_to_rent":1,"bike_racks":0,"free_racks":0,"special_racks":0,"free_special_racks":0,"maintenance":false,"terminal_type":"","bike_list":[{"number":"44628","bike_type":71,"lock_types":["frame_lock"],"active":true,"state":"ok","electric_lock":true,"boardcomputer":7551017919,"pedelec_battery":null,"battery_pack":null}],"bike_numbers":["44628"],"bike_types":{"71":1},"place_type":"12","rack_locks":false},{"uid":45878584,"lat":50.679947,"lng":7.174672,"bike":true,"name":"BIKE 45242","address":null,"spot":false,"number":0,"booked_bikes":0,"bikes":1,"bikes_available_to_rent":1,"bike_racks":0,"free_racks":0,"special_racks":0,"free_special_racks":0,"maintenance":false,"terminal_type":"","bike_list":[{"number":"45242","bike_type":71,"lock_types":["frame_lock"],"active":true,"state":"ok","electric_lock":true,"boardcomputer":7551012235,"pedelec_battery":null,"battery_pack":null}],"bike_numbers":["45242"],"bike_types":{"71":1},"place_type":"12","rack_locks":false},{"uid":45878602,"lat":50.670271,"lng":7.172165,"bike":true,"name":"BIKE 45375","address":null,"spot":false,"number":0,"booked_bikes":0,"bikes":1,"bikes_available_to_rent":1,"bike_racks":0,"free_racks":0,"special_racks":0,"free_special_racks":0,"maintenance":false,"terminal_type":"","bike_list":[{"number":"45375","bike_type":71,"lock_types":["frame_lock"],"active":true,"state":"ok","electric_lock":true,"boardcomputer":7551018635,"pedelec_battery":null,"battery_pack":null}],"bike_numbers":["45375"],"bike_types":{"71":1},"place_type":"12","rack_locks":false},{"uid":45878663,"lat":50.709471,"lng":7.157354,"bike":true,"name":"BIKE 45389","address":null,"spot":false,"number":0,"booked_bikes":0,"bikes":1,"bikes_available_to_rent":1,"bike_racks":0,"free_racks":0,"special_racks":0,"free_special_racks":0,"maintenance":false,"terminal_type":"","bike_list":[{"number":"45389","bike_type":71,"lock_types":["frame_lock"],"active":true,"state":"ok","electric_lock":true,"boardcomputer":7551057080,"pedelec_battery":null,"battery_pack":null}],"bike_numbers":["45389"],"bike_types":{"71":1},"place_type":"12","rack_locks":false},{"uid":45878703,"lat":50.6968,"lng":7.14103,"bike":true,"name":"BIKE 45109","address":null,"spot":false,"number":0,"booked_bikes":0,"bikes":1,"bikes_available_to_rent":1,"bike_racks":0,"free_racks":0,"special_racks":0,"free_special_racks":0,"maintenance":false,"terminal_type":"","bike_list":[{"number":"45109","bike_type":71,"lock_types":["frame_lock"],"active":true,"state":"ok","electric_lock":true,"boardcomputer":7551004738,"pedelec_battery":null,"battery_pack":null}],"bike_numbers":["45109"],"bike_types":{"71":1},"place_type":"12","rack_locks":false},{"uid":45878800,"lat":50.697911,"lng":7.123093,"bike":true,"name":"BIKE 44650","address":null,"spot":false,"number":0,"booked_bikes":0,"bikes":1,"bikes_available_to_rent":1,"bike_racks":0,"free_racks":0,"special_racks":0,"free_special_racks":0,"maintenance":false,"terminal_type":"","bike_list":[{"number":"44650","bike_type":71,"lock_types":["frame_lock"],"active":true,"state":"ok","electric_lock":true,"boardcomputer":7551061559,"pedelec_battery":null,"battery_pack":null}],"bike_numbers":["44650"],"bike_types":{"71":1},"place_type":"12","rack_locks":false},{"uid":45878882,"lat":50.744009,"lng":7.100952,"bike":true,"name":"BIKE 44766","address":null,"spot":false,"number":0,"booked_bikes":0,"bikes":1,"bikes_available_to_rent":1,"bike_racks":0,"free_racks":0,"special_racks":0,"free_special_racks":0,"maintenance":false,"terminal_type":"","bike_list":[{"number":"44766","bike_type":71,"lock_types":["frame_lock"],"active":true,"state":"ok","electric_lock":true,"boardcomputer":7551058640,"pedelec_battery":null,"battery_pack":null}],"bike_numbers":["44766"],"bike_types":{"71":1},"place_type":"12","rack_locks":false},{"uid":45878948,"lat":50.727173,"lng":7.140205,"bike":true,"name":"BIKE 45101","address":null,"spot":false,"number":0,"booked_bikes":0,"bikes":1,"bikes_available_to_rent":1,"bike_racks":0,"free_racks":0,"special_racks":0,"free_special_racks":0,"maintenance":false,"terminal_type":"","bike_list":[{"number":"45101","bike_type":71,"lock_types":["frame_lock"],"active":true,"state":"ok","electric_lock":true,"boardcomputer":7551013059,"pedelec_battery":null,"battery_pack":null}],"bike_numbers":["45101"],"bike_types":{"71":1},"place_type":"12","rack_locks":false},{"uid":45879028,"lat":50.710893,"lng":7.136945,"bike":true,"name":"BIKE 45189","address":null,"spot":false,"number":0,"booked_bikes":0,"bikes":1,"bikes_available_to_rent":1,"bike_racks":0,"free_racks":0,"special_racks":0,"free_special_racks":0,"maintenance":false,"terminal_type":"","bike_list":[{"number":"45189","bike_type":71,"lock_types":["frame_lock"],"active":true,"state":"ok","electric_lock":true,"boardcomputer":7551013159,"pedelec_battery":null,"battery_pack":null}],"bike_numbers":["45189"],"bike_types":{"71":1},"place_type":"12","rack_locks":false},{"uid":45879067,"lat":50.745338,"lng":7.120335,"bike":true,"name":"BIKE 45279","address":null,"spot":false,"number":0,"booked_bikes":0,"bikes":1,"bikes_available_to_rent":1,"bike_racks":0,"free_racks":0,"special_racks":0,"free_special_racks":0,"maintenance":false,"terminal_type":"","bike_list":[{"number":"45279","bike_type":71,"lock_types":["frame_lock"],"active":true,"state":"ok","electric_lock":true,"boardcomputer":7551056880,"pedelec_battery":null,"battery_pack":null}],"bike_numbers":["45279"],"bike_types":{"71":1},"place_type":"12","rack_locks":false},{"uid":45879094,"lat":50.756267,"lng":7.052196,"bike":true,"name":"BIKE 45265","address":null,"spot":false,"number":0,"booked_bikes":0,"bikes":1,"bikes_available_to_rent":1,"bike_racks":0,"free_racks":0,"special_racks":0,"free_special_racks":0,"maintenance":false,"terminal_type":"","bike_list":[{"number":"45265","bike_type":71,"lock_types":["frame_lock"],"active":true,"state":"ok","electric_lock":true,"boardcomputer":7551004659,"pedelec_battery":null,"battery_pack":null}],"bike_numbers":["45265"],"bike_types":{"71":1},"place_type":"12","rack_locks":false},{"uid":45879111,"lat":50.756267,"lng":7.052284,"bike":true,"name":"BIKE 45092","address":null,"spot":false,"number":0,"booked_bikes":0,"bikes":1,"bikes_available_to_rent":1,"bike_racks":0,"free_racks":0,"special_racks":0,"free_special_racks":0,"maintenance":false,"terminal_type":"","bike_list":[{"number":"45092","bike_type":71,"lock_types":["frame_lock"],"active":true,"state":"ok","electric_lock":true,"boardcomputer":7551003443,"pedelec_battery":null,"battery_pack":null}],"bike_numbers":["45092"],"bike_types":{"71":1},"place_type":"12","rack_locks":false},{"uid":45879210,"lat":50.750511,"lng":7.099399,"bike":true,"name":"BIKE 45458","address":null,"spot":false,"number":0,"booked_bikes":0,"bikes":1,"bikes_available_to_rent":1,"bike_racks":0,"free_racks":0,"special_racks":0,"free_special_racks":0,"maintenance":false,"terminal_type":"","bike_list":[{"number":"45458","bike_type":71,"lock_types":["frame_lock"],"active":true,"state":"ok","electric_lock":true,"boardcomputer":7551017878,"pedelec_battery":null,"battery_pack":null}],"bike_numbers":["45458"],"bike_types":{"71":1},"place_type":"12","rack_locks":false},